name,operator,state,county,sqft,lat,lon,type
Verizon,,New Jersey,Middlesex County,105786.0,40.54425557630532,-74.49652096447575,building
Google Data Center,Google,North Carolina,Caldwell County,3407194.0,35.89473769568106,-81.54651452543965,campus
Project Alluvion,Microsoft,Iowa,Polk County,11169421.0,41.51596683171199,-93.71182964871085,campus
Apple - Maiden Data Center,,North Carolina,Catawba County,5431080.0,35.588771360781784,-81.26180877040838,campus
HPC,Sandia National Laboratories,New Mexico,Bernalillo County,158463.0,35.04994198074902,-106.54282203991325,building
Meta Henrico Data Center,Meta,Virginia,Henrico County,4671056.0,37.482763284885785,-77.23645509442149,campus
Barclays Datacenter,Barclays,New Jersey,Union County,94373.0,40.64375303338713,-74.28548116880219,building
CyberNAP Glen Burnie,AiNET,Maryland,Anne Arundel County,89879.0,39.14024170717737,-76.60643112453295,building
Meta Huntsville Data Center,Meta,Alabama,Madison County,14435561.0,34.84424467802452,-86.62831680386925,campus
Dakota Carrier Network,,North Dakota,Cass County,25931.0,46.81509687104177,-96.84432644156146,building
Microsoft Data Center 1,Microsoft,Virginia,Prince William County,248706.0,38.8024111256264,-77.58237918867958,building
Meta Prineville Datacenter,Meta,Oregon,Crook County,17379079.0,44.29844323079028,-120.88638228128598,campus
Apple Prineville Datacenter,Apple,Oregon,Crook County,15637431.0,44.28455821302781,-120.86588333153831,campus
Cyxtera Dallas-Fort Worth Data Center,Cyxtera,Texas,Tarrant County,309104.0,32.83271789571454,-97.0410416432689,building
Equinix Infomart,Equinix,Texas,Dallas County,239835.0,32.800943222986994,-96.81951054637986,building
CoreSite BO1,,Massachusetts,Middlesex County,133960.0,42.37670588382176,-71.07975761756323,building
USPO Terminal Annex,United States Postal Service,California,Los Angeles County,99270.0,34.05810223824728,-118.23539293645688,building
DataBank,,Texas,Dallas County,43564.0,32.77830147632332,-96.79843729449848,building
CyrusOne Cincinnati-Mason CIN3,CyrusOne,Ohio,Warren County,82813.0,39.30389580661304,-84.31157999997258,building
LightEdge SAN1,,California,San Diego County,83576.0,32.827865524456854,-117.12993394622256,building
EdgeConneX San Diego,EdgeConneX,California,San Diego County,39204.0,32.842308661647536,-117.1693449894231,building
RagingWire CA2,NTT,California,Sacramento County,204702.0,38.6503995314376,-121.49194609960875,building
RagingWire CA1,NTT,California,Sacramento County,192302.0,38.65043183405982,-121.48918647250004,building
Hewlett-Packard,,Georgia,Fulton County,1294301.0,34.0822260639216,-84.26744994290632,campus
Equinix SV1,Equinix,California,Santa Clara County,135022.0,37.241586803667886,-121.7833201255276,building
Unknown,,Ohio,Hamilton County,13074.0,39.29404817733801,-84.41211321346512,building
Lumen Sunnyvale 1,Lumen Technologies,California,Santa Clara County,77132.0,37.37343914789955,-121.98781298697564,building
OpenColo,,California,Santa Clara County,65471.0,37.37881629201175,-121.95593725165452,building
Equinix Santa Clara SV2,Equinix,California,Santa Clara County,81106.0,37.378433690080165,-121.95499188020412,building
Layer42 Santa Clara,Layer42,California,Santa Clara County,25031.0,37.378039948434136,-121.95415110304296,building
Digital Realty Silicon Valley SJC34,Digital Realty,California,Santa Clara County,129242.0,37.37238819523252,-121.97361948715526,building
Csquare SFO1,Csquare,California,Santa Clara County,92193.0,37.371519049598696,-121.96969744738088,building
Unknown,Vantage,California,Santa Clara County,89293.0,37.37338590954395,-121.97269293993044,building
Strategic Datasphere,,Georgia,Fulton County,127487.0,34.09479739753544,-84.23569669904141,building
Flexential Atlanta - Alpharetta Data Center,Flexential,Georgia,Fulton County,74814.0,34.08700522087238,-84.25175214535511,building
Secure Data Center,,Georgia,Fulton County,184012.0,34.09370761226,-84.25087563127063,building
Cologix Santa Clara SV1 Data Center,Cologix,California,Santa Clara County,80686.0,37.36533280955109,-121.9617004216462,building
Netrality Data Centers,,Missouri,St. Louis city,23093.0,38.62926158352849,-90.197174834978,building
Unknown,,Minnesota,Hennepin County,51180.0,44.99145768142225,-93.28029157225949,building
Unknown,,Virginia,Prince William County,52906.0,38.80341459582856,-77.51057747962513,building
Amazon IAD11,Amazon Web Services,Virginia,Prince William County,122474.0,38.790500006452135,-77.54111111954948,building
Amazon IAD24,Amazon Web Services,Virginia,Prince William County,31388.0,38.79035015175034,-77.54000633908686,building
Amazon IAD7,Amazon Web Services,Virginia,Prince William County,109423.0,38.79120375196744,-77.53827709301147,building
CyrusOne CIN2,CyrusOne,Ohio,Hamilton County,29534.0,39.102694860367215,-84.51789753744696,building
VA 4,Digital Realty,Virginia,Prince William County,263538.0,38.77811126874212,-77.594876153305,building
Amazon IAD10,Amazon Web Services,Virginia,Loudoun County,112726.0,39.0216455535984,-77.43287558139869,building
Amazon IAD32,Amazon Web Services,Virginia,Loudoun County,35700.0,39.02156932429181,-77.43479445422666,building
NTT RagingWire Data Center,NTT,Oregon,Washington County,260339.0,45.549583992290586,-122.93739288182852,building
Centersquare IAD1-B,Centersquare,Virginia,Loudoun County,79070.0,39.02390730425034,-77.41518975933123,building
Centersquare IAD1-A,Centersquare,Virginia,Loudoun County,89830.0,39.02332121207586,-77.4132010228583,building
Centersquare IAD1-C,Centersquare,Virginia,Loudoun County,135383.0,39.02475554990798,-77.41220365945969,building
Flexential Minneapolis - Chaska,Flexential,Minnesota,Carver County,135505.0,44.85159287119095,-93.59883127427165,building
Pearl Plaza Office Building,,Colorado,Denver County,48787.0,39.74523035286353,-104.97933224935198,building
Csquare SFO2,Csquare,California,Santa Clara County,146098.0,37.39757919675742,-121.9808693510514,building
Csquare SFO2,Csquare,California,Santa Clara County,115693.0,37.39861833320087,-121.98111165280665,building
QTS Santa Clara 1,Quality Technology Services,California,Santa Clara County,32173.0,37.39398377756207,-121.97830969442312,building
CoreSite SV3,CoreSite,California,Santa Clara County,57809.0,37.37514209318246,-121.9717093732258,building
CoreSite SV6,CoreSite,California,Santa Clara County,61065.0,37.37630188023717,-121.9720837997304,building
CoreSite SV8,CoreSite,California,Santa Clara County,41609.0,37.37738265750685,-121.9718400510976,building
CoreSite SV5,CoreSite,California,Santa Clara County,50856.0,37.37519609854625,-121.97068979280724,building
CoreSite SV9,CoreSite,California,Santa Clara County,60403.0,37.37555851580601,-121.9696099700251,building
QTS Santa Clara 2,Quality Technology Services,California,Santa Clara County,36808.0,37.392721680154914,-121.97839685451906,building
STACK NVA01A - Northern Virginia,Stack Infrastructure,Virginia,Loudoun County,179330.0,39.00469915120877,-77.44176406797281,building
Minnesota Gateway Data Center,,Minnesota,Hennepin County,87697.0,44.97130185223087,-93.25465186805064,building
IBM Building,,New York,Albany County,15355.0,42.64935307487593,-73.7527452452726,building
Unknown,Verizon Wireless,Michigan,Wayne County,24933.0,42.32626638236376,-83.07698605760793,building
Unknown,University of New Hampshire,New Hampshire,Strafford County,30553.0,43.14361852296161,-70.95247263069143,building
VA3,Digital Realty,Virginia,Fairfax County,96241.0,38.94846385493133,-77.32729535242555,building
IAD1,Evocative,Virginia,Fairfax County,19325.0,38.94881628378597,-77.32940997255484,building
CoreSite Reston Campus VA1,CoreSite,Virginia,Fairfax County,138035.0,38.95058588448764,-77.36454759512179,building
CoreSite Reston VA3,CoreSite,Virginia,Fairfax County,249707.0,38.94846756695561,-77.37236980053557,building
Unknown,FirstLight,New Hampshire,Rockingham County,9316.0,43.07611925782941,-70.80804278020655,building
Insurance Exchange Building,,Colorado,Denver County,19807.0,39.74557178496544,-104.9956910745452,building
Lincoln Rackhouse Maryland,Lincoln Rackhouse,Maryland,Montgomery County,146301.0,39.05856287562289,-76.9643217094945,building
CyrusOne Cincinnati-Lebanon,,Ohio,Warren County,198403.0,39.389018744445785,-84.22187533686325,building
Equinix NY7 Data Center,Equinix,New Jersey,Hudson County,68650.0,40.79686366512243,-74.03114084308724,building
Equinix SV4,Equinix,California,Santa Clara County,122369.0,37.41456431406775,-122.01457953832228,building
H5 Data Centers San Antonio,H5 Data Centers,Texas,Bexar County,20898.0,29.429371203549056,-98.4869063933119,building
Aureon,,Iowa,Polk County,11253.0,41.58799896569892,-93.63100934776038,building
Unknown,,North Carolina,Catawba County,564402.0,35.588012637841835,-81.26252687782907,building
Digital Realty New York HVN10,Digital Realty,Connecticut,Greater Bridgeport Planning Region,134982.0,41.24084597137587,-73.14729941546844,building
Lincoln Rackhouse,,Illinois,DuPage County,70123.0,41.77216480463177,-88.21709086831733,building
Digital Realty CH1,Digital Realty,Illinois,Cook County,469756.0,41.9942374288397,-87.96217216116061,building
H5 Minneapolis,H5,Minnesota,Ramsey County,108201.0,44.97225309779238,-93.14746015507276,building
Iron Mountain Records Storage,,Arizona,Maricopa County,145832.0,33.42038002636909,-112.04132578020344,building
Equinix SV8,Equinix,California,Santa Clara County,12034.0,37.44589521919974,-122.16078171336196,building
NCSA Petascale Computing Facility,,Illinois,Champaign County,45620.0,40.09525910728646,-88.24203140069088,building
LexisNexus Springfield,,Ohio,Clark County,79937.0,39.912780083635845,-83.72376141562717,building
Digital Realty ORD11,Digital Realty,Illinois,Cook County,9092.0,41.87429345515449,-87.6299544230129,building
Lumen,Lumen Technologies,Arizona,Maricopa County,25456.0,33.49433566334995,-112.0707857401212,building
L3Harris Technologies Inc,,Arizona,Maricopa County,14469.0,33.30535847275577,-111.67170400659428,building
AZ Labs,,Arizona,Maricopa County,31625.0,33.30627197658142,-111.67170030901956,building
Serverfarm CH1,Serverfarm,Illinois,Cook County,56419.0,41.87094383200688,-87.64014138667577,building
Aligned Energy Data Center,,Arizona,Maricopa County,512814.0,33.65904093265778,-112.11116815143932,building
Unknown,,Virginia,Fairfax County,19578.0,38.91370196268696,-77.2258381321817,building
Lakeside Technology Center,,Illinois,Cook County,129156.0,41.85365260504632,-87.6183592533761,building
Flexential Phoenix - Deer Valley,Flexential,Arizona,Maricopa County,110023.0,33.68467413549308,-112.09835688433344,building
Equinix SV5,Equinix,California,Santa Clara County,166314.0,37.24204046852016,-121.7818392792948,building
"Union Pacific Jack Koraleski Technology, Research & Development Center",Union Pacific Railroad,Nebraska,Douglas County,54386.0,41.31800464175668,-96.05034469682974,building
DataBank Pittsburgh PIT2,,Pennsylvania,Allegheny County,60007.0,40.4513685262094,-80.1901183810463,building
Molina Healthcare,,New Mexico,Bernalillo County,25568.0,34.99544591950108,-106.61803444531762,building
Switch12,Switch,Nevada,Clark County,378533.0,36.06173888983835,-115.21329217816584,building
Switch Las Vegas 7,Switch,Nevada,Clark County,324714.0,36.0599251525617,-115.2102454849461,building
EdgeConneX CHI01,EdgeConneX,Illinois,Cook County,120191.0,42.00077520139855,-87.9507686963863,building
Unknown,,Maryland,Frederick County,64023.0,39.377776311443,-77.41151850611422,building
Verizon Wireline Network Building,,New Jersey,Middlesex County,32247.0,40.49490313172346,-74.44309493368364,building
RagingWire CA3,NTT,California,Sacramento County,151366.0,38.64423935185345,-121.49876273285923,building
Unknown,,Iowa,Pottawattamie County,227733.0,41.22148561735031,-95.86382197433596,building
360 Spear Street Data Center,Digital Realty,California,San Francisco County,34599.0,37.788991656058194,-122.390136684847,building
Equinix New York Secaucus NY5,Equinix,New Jersey,Hudson County,211455.0,40.77860177682814,-74.07230107005047,building
Equinix New York Secaucus NY4,Equinix,New Jersey,Hudson County,317271.0,40.77642808061452,-74.06977591206658,building
Equinix NY3,Equinix,New Jersey,Hudson County,274326.0,40.77485222997869,-74.06889005365075,building
Equinix New York Secaucus NY2,Equinix,New Jersey,Hudson County,402960.0,40.77741950863346,-74.07591693201753,building
Centersquare NYC3 Data Center,Centersquare,New Jersey,Hudson County,143163.0,40.786164392038,-74.06918218107636,building
QTS Sacramento,Quality Technology Services,California,Sacramento County,90196.0,38.64634932685158,-121.48622274444377,building
Unknown,,Missouri,Platte County,59078.0,39.2906006524332,-94.67586457208311,building
Unknown,,Missouri,Platte County,240121.0,39.29565786992253,-94.67347189936218,building
Black Rock Financial Management,,Missouri,Platte County,80025.0,39.295491746601805,-94.67802527416188,building
Unknown,,Missouri,Platte County,51140.0,39.30240570006526,-94.68479180000348,building
Cherokee Data Center,,Oklahoma,Tulsa County,414827.0,36.262546063389934,-95.9100313251996,building
CyrusOne Chicago Aurora CME,CyrusOne,Illinois,DuPage County,483103.0,41.796710709040994,-88.24360276085451,building
Xfinity/Comcast Data Center,,Colorado,Arapahoe County,51338.0,39.58830727917688,-104.83243481918149,building
IU Data Center,Indiana University,Indiana,Monroe County,94298.0,39.17441904078126,-86.50070264503239,building
IO Datacenter,,New Jersey,Middlesex County,829908.0,40.52090133887192,-74.34731684357497,building
DataBank Piscataway EWR2,,New Jersey,Middlesex County,50646.0,40.54921344851484,-74.45820961832148,building
Optimum,,New Jersey,Middlesex County,68126.0,40.54682624136092,-74.49202896228643,building
Equinix,Equinix,New Jersey,Middlesex County,62331.0,40.544881931883474,-74.49538057530053,building
Barclays Datacenter,Barclays,New Jersey,Middlesex County,352286.0,40.5472442650833,-74.45973725576991,building
Digital Realty New York EWR12,Digital Realty,New Jersey,Middlesex County,302795.0,40.5529045023767,-74.45930065392976,building
Digital Realty New York EWR11,Digital Realty,New Jersey,Middlesex County,96114.0,40.55377882278532,-74.4571794816788,building
Intergate Seattle East Building 2,,Washington,King County,107319.0,47.49503090192437,-122.29056964991396,building
Intergate Seattle East Building 1,Sabey,Washington,King County,97862.0,47.49485963017309,-122.28819434180774,building
Equinix SV15,Equinix,California,Santa Clara County,38211.0,37.3754951498238,-121.98840629999836,building
Equinix SV16,Equinix,California,Santa Clara County,26347.0,37.37611802320719,-121.98868795324002,building
Equinix SV17,Equinix,California,Santa Clara County,42360.0,37.37652899594956,-121.98858391314208,building
Equinix SV14,Equinix,California,Santa Clara County,20213.0,37.37496213850432,-121.98850932446408,building
CoreSite SV4,CoreSite,California,Santa Clara County,51928.0,37.37626310504029,-121.97068417339612,building
Lumen Santa Clara,Lumen Technologies,California,Santa Clara County,25424.0,37.37700481451302,-121.952081932971,building
Prime Santa Clara,Prime,California,Santa Clara County,30065.0,37.37501721660046,-121.95324973327962,building
Digital Realty Silicon Valley SJC10,Digital Realty,California,Santa Clara County,57051.0,37.37582290579368,-121.95333535904548,building
Colovore,,California,Santa Clara County,24161.0,37.37672946683328,-121.95314883048796,building
Digital Realty Silicon Valley SJC30,Digital Realty,California,Santa Clara County,48539.0,37.37828897395487,-121.95810528697965,building
Digital Realty Silicon Valley SJC15,Digital Realty,California,Santa Clara County,24615.0,37.374996550088426,-121.95407689999966,building
Digital Realty Silicon Valley SJC16,Digital Realty,California,Santa Clara County,42504.0,37.374929097082685,-121.9559861698452,building
Digital Realty Silicon Valley SJC29,Digital Realty,California,Santa Clara County,40287.0,37.37502320043753,-121.95809620000126,building
Csquare SFO4,Csquare,California,Santa Clara County,27286.0,37.37577706129449,-121.9551929871648,building
Prime SANTA CLARA DATA CENTER,Prime,California,Santa Clara County,25825.0,37.37502630609213,-121.95488070140485,building
Digital Realty Silicon Valley SJC11,Digital Realty,California,Santa Clara County,44027.0,37.3763410080539,-121.94853104740696,building
Lumen,Lumen Technologies,California,Santa Clara County,15840.0,37.37758479573238,-121.95068207526988,building
Silicon Valley SJC31,Digital Realty,California,Santa Clara County,146597.0,37.37224989820432,-121.9483289304616,building
Unknown,,California,Santa Clara County,18864.0,37.37977911163557,-121.9499100438154,building
Evocative Santa Clara SJC11,,California,Santa Clara County,51418.0,37.389539602058925,-121.9619460438575,building
QTS Chicago,Quality Technology Services,Illinois,Cook County,267112.0,41.84218652884067,-87.66900814712955,building
Iron Mountain Data & Record Storage,Iron Mountain,Illinois,Cook County,106033.0,41.84879669155961,-87.64550983406528,building
Data Storage Centers,,Arizona,Maricopa County,38109.0,33.42169287468072,-112.03430310768364,building
Unknown,TierPoint,Massachusetts,Essex County,51354.0,42.68570898649228,-71.20859932011268,building
Markley Data Center,Markley Group,Massachusetts,Middlesex County,123665.0,42.6302619946922,-71.30442370850213,building
Flexential Charlotte - South,Flexential,North Carolina,Mecklenburg County,33741.0,35.13543064967395,-80.93687158006364,building
Digital Realty Data Center,Digital Realty,Arizona,Maricopa County,67568.0,33.344648208315185,-111.899226799974,building
Unknown,Comcast,Washington,King County,8025.0,47.69332367380439,-122.31731718771368,building
Equinix DC97,,Virginia,Fairfax County,43991.0,38.96157142283795,-77.37742307519908,building
Amazon IAD-55,Amazon Web Services,Virginia,Prince William County,228140.0,38.81506150876172,-77.64876376105127,building
CTI Biopharma,,Washington,King County,20600.0,47.6177878057982,-122.35669303335187,building
Westin Building,Digital Realty,Washington,King County,13117.0,47.61435537680634,-122.3388642251616,building
COPT Data Center,,Virginia,Prince William County,127955.0,38.74728120625688,-77.5318452938603,building
Dell 350 Holger Way,,California,Santa Clara County,45282.0,37.418407037850685,-121.9430846177997,building
SV Colo,SV Colo,California,Santa Clara County,57709.0,37.36431021578032,-121.9587992678193,building
Microsoft,Microsoft,California,Santa Clara County,166655.0,37.3620662092011,-121.94643635591544,building
OVH US East Vint Hill,,Virginia,Fauquier County,85783.0,38.747444697578814,-77.67445377449387,building
NCAR-Wyoming Supercomputing Center,University Corporation for Atmospheric Research,Wyoming,Laramie County,101129.0,41.12879048730292,-104.89748679471974,building
The Seattle Times,H5 Data Centers,Washington,King County,48589.0,47.61898482839781,-122.33646162358502,building
Google Data Center The Dalles Oregon,Google,Oregon,Wasco County,1487396.0,45.63204799165709,-121.2013022306046,campus
Segra Data Center,,North Carolina,Wake County,46141.0,35.7249920936468,-78.66236321040674,building
Equinix Ashburn DC2,Equinix,Virginia,Loudoun County,175215.0,39.0164707082229,-77.45900624552966,building
H5 Data Centers Ashburn,H5,Virginia,Loudoun County,83656.0,39.01367498906444,-77.45171989501627,building
TierPoint Sioux Falls West Data Center,,South Dakota,Minnehaha County,55963.0,43.60697077791878,-96.80919489840308,building
Lumen McLean,Lumen Technologies,Virginia,Fairfax County,42056.0,38.920020715978985,-77.21161871839628,building
DataBank McLean IAD2,DataBank,Virginia,Fairfax County,22957.0,38.919905150298106,-77.21358499990595,building
eBay,,Utah,Salt Lake County,183167.0,40.5637493311281,-112.04772494385752,building
Equinix Chicago Data CH7,Equinix,Illinois,DuPage County,47336.0,41.812557111453394,-87.9728434935898,building
PhoenixNAP,,Arizona,Maricopa County,79223.0,33.41605053769886,-112.0094263246897,building
Merrill Lynch Data Center,Merrill Lynch,New York,Richmond County,63435.0,40.60738024218361,-74.17317970568563,building
Telehouse Teleport,Telehouse,New York,Richmond County,69999.0,40.606985209666014,-74.17488651961352,building
32 Avenue of the Americas,,New York,New York County,42396.0,40.719998478665225,-74.00463586981833,building
Digital Realty,Digital Realty,Virginia,Fairfax County,72337.0,38.91013270273295,-77.47258021616551,building
TierPoint,,Missouri,St. Louis city,24039.0,38.62976100794761,-90.1964202669285,building
Verizon,,Nevada,Clark County,25884.0,36.14473260734884,-115.07792815622405,building
Unknown,,Texas,Bexar County,127563.0,29.44667420261524,-98.64069026748368,building
Unknown,,Texas,Bexar County,142712.0,29.44792213625347,-98.64112862038242,building
Unknown,,Texas,Bexar County,36014.0,29.447199009365736,-98.64099341797508,building
Unknown,,Texas,Collin County,121665.0,33.09599431363361,-96.68156543918737,building
Evoque Allen DA1,Centersquare,Texas,Collin County,114534.0,33.09506355613131,-96.68376373847305,building
Unknown,,Nebraska,Douglas County,69219.0,41.26141936949243,-95.93649511237068,building
Flexential - Richmond,Flexential,Virginia,Henrico County,39778.0,37.64689021155886,-77.4386951674598,building
Amazon IAD-9,Amazon Web Services,Virginia,Fairfax County,85855.0,38.89965169321406,-77.453440411722,building
Amazon IAD22,,Virginia,Fairfax County,30140.0,38.89790175442311,-77.45510184070243,building
Amazon IAD-1,Amazon Web Services,Virginia,Fairfax County,93882.0,38.89785914212506,-77.45407518694847,building
Unknown,,Virginia,Fairfax County,43330.0,38.90924510953836,-77.47224542805822,building
Unknown,,Virginia,Fairfax County,32222.0,38.90979813235743,-77.47346579109487,building
Unknown,,Virginia,Fairfax County,56049.0,38.75081659536996,-77.19627275728058,building
Cox Data Center,,Georgia,Fulton County,127858.0,34.03620188757935,-84.31955321505815,building
QTS Atlanta Data Center 1,Quality Technology Services,Georgia,Fulton County,719736.0,33.7776811736858,-84.42109985598158,building
Csquare SFO3,Csquare,California,Santa Clara County,71209.0,37.372103697929965,-121.98603139645,building
Centersquare IAD3,Centersquare,Virginia,Loudoun County,130748.0,38.98092474637894,-77.44424695215189,building
Centersquare IAD2-A,Centersquare,Virginia,Loudoun County,48153.0,38.98441813209926,-77.42381651986251,building
Unknown,CyrusOne,Virginia,Loudoun County,127744.0,38.98488674675325,-77.42564884364357,building
Centersquare IAD2-B,Centersquare,Virginia,Loudoun County,71819.0,38.98360375263324,-77.42410521314366,building
Digital Realty Data Center,Digital Realty,Georgia,Fulton County,128785.0,33.65703230386123,-84.41520253319351,building
Cyxtera (Digital Realty Trust) Citibank Data Center,Cyxtera,New Jersey,Hudson County,58356.0,40.76076492901499,-74.02575833881977,building
Digital Realty New Jersey EWR10,Digital Realty,New Jersey,Hudson County,126960.0,40.76183107982837,-74.0250249144998,building
Unknown,,Washington,Grant County,151976.0,47.24621227884292,-119.81322935255956,building
Unknown,,Washington,Grant County,133363.0,47.24765247479226,-119.81318678101924,building
Unknown,,Washington,Grant County,135310.0,47.24616793078344,-119.81575602489733,building
Intergate Quincy Data Center,Sabey Data Centers,Washington,Grant County,4318512.0,47.24532712863972,-119.81593119578888,campus
H5 Data Center,Intuit,Washington,Grant County,2700606.0,47.25141148987496,-119.8187531190913,campus
Unknown,,Washington,Grant County,246778.0,47.2525738060569,-119.81966487505578,building
Yahoo Data Center,Yahoo,Washington,Grant County,2171290.0,47.24698453090597,-119.82778184700376,campus
Unknown,,Washington,Grant County,151213.0,47.24673555311077,-119.82886591661293,building
Unknown,,Washington,Grant County,35848.0,47.2459914143102,-119.8297911817926,building
Unknown,,Washington,Grant County,35925.0,47.24598939949083,-119.8291703,building
Unknown,,Washington,Grant County,33824.0,47.24598937431324,-119.82815880653992,building
Unknown,,Washington,Grant County,33688.0,47.24600329947973,-119.82754149992972,building
Unknown,,Washington,Grant County,19067.0,47.24606673682079,-119.82866158737184,building
NTTData Data Center,,Washington,Grant County,3068566.0,47.24435998530277,-119.86463264336116,campus
DataSite Atlanta,datasite,Georgia,Cobb County,77660.0,33.92551125989177,-84.48161598883719,building
Unknown,,Missouri,Platte County,30923.0,39.290121050497966,-94.68505095083452,building
Digital Realty San Francisco SFO10,Digital Realty,California,San Francisco County,104867.0,37.7236016950597,-122.39793596994734,building
33 Thomas Street,,New York,New York County,30791.0,40.7165249817088,-74.0059130609563,building
VentureData,,Idaho,Madison County,18269.0,43.8252432321768,-111.78209278694165,building
Cogent Data Center,"Cogent Communications, Inc.",Arizona,Maricopa County,51675.0,33.400255234990105,-112.04789988122732,building
CoreSpace Dallas,CoreSpace,Texas,Dallas County,31626.0,32.81755909182154,-96.87306493151615,building
Unknown,,Colorado,Arapahoe County,108473.0,39.59013144249605,-104.8469632823158,building
zColo by Zayo,,Colorado,Arapahoe County,62177.0,39.591351747526645,-104.84703864109652,building
Intergate Seattle East Building 5,Sabey,Washington,King County,200124.0,47.49191977023952,-122.28973615206532,building
Intergate Seattle East Building 3,Sabey,Washington,King County,203387.0,47.493556238112845,-122.29030164481166,building
Intergate Seattle East Building 4,Digital Realty,Washington,King County,116828.0,47.49341087440766,-122.28885825770004,building
Flexential Allentown data center,Flexential,Pennsylvania,Lehigh County,48995.0,40.635695315852814,-75.45757328328773,building
Digital Realty ACC4,Digital Realty,Virginia,Loudoun County,294156.0,39.01790179112408,-77.46254912313509,building
Equinix Ashburn DC1,Equinix,Virginia,Loudoun County,59757.0,39.01556033255059,-77.46032653997727,building
Equinix Ashburn DC5,Equinix,Virginia,Loudoun County,94665.0,39.01598729725932,-77.46124797924023,building
Equinix Ashburn DC11,Equinix,Virginia,Loudoun County,132897.0,39.014930750375306,-77.45880365175545,building
Equinix Ashburn DC3,Equinix,Virginia,Loudoun County,186227.0,39.021947987272775,-77.46028710356292,building
Digital Realty ACC3,Digital Realty,Virginia,Loudoun County,151562.0,39.01993590507545,-77.45984179886374,building
CoreSite SV2,"CoreSite Real Estate 1656 McCarthy, L.P.",California,Santa Clara County,89939.0,37.40568310648504,-121.91624119521208,building
Amazon IAD76,Amazon Web Services,Virginia,Loudoun County,138071.0,38.99378528168933,-77.45050945562221,building
Amazon IAD12,Amazon Web Services,Virginia,Loudoun County,149598.0,38.98872330810434,-77.44767141862896,building
Unknown,QTS Data Centers,Virginia,Loudoun County,10175.0,38.99463732348249,-77.44790209132543,building
Digital Realty ACC5,Digital Realty,Virginia,Loudoun County,298859.0,39.02011263672101,-77.46307101056209,building
Digital Realty ACC6,Digital Realty,Virginia,Loudoun County,226152.0,39.02106804323565,-77.46358953091513,building
Level 3 Ashburn,Lumen Technologies,Virginia,Loudoun County,49022.0,39.0221725562622,-77.45759526371418,building
Centersquare IAD4-B,Centersquare,Virginia,Loudoun County,90029.0,39.022140336655866,-77.45360972261447,building
NTT Ashburn VA1 Data Center,NTT,Virginia,Loudoun County,138507.0,39.02276445956019,-77.45486923381064,building
Digital Realty Phoenix PHX15,Digital Realty,Arizona,Maricopa County,294678.0,33.27497378533701,-111.88662619785596,building
H5 Phoenix,H5,Arizona,Maricopa County,50925.0,33.27691083822963,-111.88590913146852,building
CyrusOne PHX1,CyrusOne,Arizona,Maricopa County,137355.0,33.27085532906607,-111.88191152923802,building
Equinix DC13,Equinix,Virginia,Loudoun County,125613.0,39.01253746084648,-77.47539286797381,building
Digital Realty Northern Virginia IAD14,Digital Realty,Virginia,Loudoun County,134503.0,39.00333638342545,-77.48709346092416,building
Amazon Web Services Building C,Amazon Web Services,Virginia,Loudoun County,116698.0,39.00275165389682,-77.48544866796638,building
Digital Realty Northern Virginia IAD12,Digital Realty,Virginia,Loudoun County,180269.0,39.002021512406806,-77.48334543979661,building
Digital Realty Building A,Digital Realty,Virginia,Loudoun County,133113.0,39.00275464974417,-77.48195442999278,building
Digital Realty Northern Virginia IAD24,Digital Realty,Virginia,Loudoun County,114428.0,39.00429228111817,-77.48435473615672,building
Databank Ashburn IAD1,Databank,Virginia,Loudoun County,144740.0,39.01554879745239,-77.48213787541994,building
Golds Gym Ashburn,,Virginia,Loudoun County,54700.0,39.01560147883306,-77.48327064329858,building
Apple Data Center,Apple Inc.,Arizona,Maricopa County,1338261.0,33.34701915860399,-111.60405623426205,building
VISA,VISA,Illinois,Lake County,55001.0,42.216756536018735,-87.95284650862307,building
John F. Simms Building,SONM,New Mexico,Santa Fe County,31727.0,35.67244389730999,-105.95657515744648,building
Lumen San Antonio 2,Lumen Technologies,Texas,Bexar County,12722.0,29.438279094436894,-98.50652172672936,building
Unknown,,Oregon,Crook County,269642.0,44.29588334105515,-120.88726144669496,building
Adobe Data Center,,Oregon,Washington County,89232.0,45.55018168886831,-122.93181213080427,building
Stack Infrastructure Portland 2 Data Center,,Oregon,Washington County,215217.0,45.547311791366376,-122.89744896301694,building
Digital Realty PDX10 Data Center,Digital Realty,Oregon,Washington County,68807.0,45.54761722382477,-122.89195798239216,building
Flexential,Flexential,Oregon,Washington County,41245.0,45.5498209002179,-122.8908514025637,building
Flexential Portland - Hillsboro 1,Flexential,Oregon,Washington County,44088.0,45.55033398642741,-122.89220172053012,building
Flexential Louisville - East,Flexential,Kentucky,Jefferson County,34794.0,38.277197827679295,-85.50724111669626,building
Flexential Louisville - Downtown,Flexential,Kentucky,Jefferson County,36525.0,38.24249601378566,-85.73335104065765,building
Terminal Commerce Building,,Pennsylvania,Philadelphia County,119659.0,39.95980952635984,-75.16083249176855,building
TierPoint,,Washington,Spokane County,14435.0,47.671916867147694,-117.09593477622664,building
Baltimore Technology Park,,Maryland,Baltimore city,30131.0,39.27538391165092,-76.62552663391303,building
Intergate Seattle West Building C,Sabey,Washington,King County,19791.0,47.49413118771306,-122.29440690516354,building
Intergate Seattle West Building B,Sabey,Washington,King County,19140.0,47.49307629033907,-122.29368392327882,building
Intergate Seattle West Building A,Sabey,Washington,King County,38547.0,47.49214782871073,-122.293319807759,building
Vantage WA11,,Washington,Grant County,147430.0,47.25016454994511,-119.81449029306091,building
NTT Data Quincy,NTT,Washington,Grant County,99760.0,47.24358751309279,-119.86571157127666,building
Unknown,,Washington,Grant County,44365.0,47.23881859630125,-119.85935927491568,building
Unknown,,Washington,Grant County,32106.0,47.23826232566218,-119.85936632665342,building
Geneseo Communications Inc,,Iowa,Scott County,53983.0,41.55026944582376,-90.482409225225,building
Unknown,,Illinois,DuPage County,14550.0,41.90535458903981,-88.21951394141162,building
Unknown,,New Jersey,Middlesex County,61263.0,40.5528187281629,-74.45667583889342,building
Unknown,Verizon Wireless,Indiana,Hancock County,21005.0,39.71718414793671,-85.94132960161893,building
Unknown,,New Jersey,Hudson County,34462.0,40.78473886879808,-74.06435818266343,building
Flexential Salt Lake City - South Valley,Flexential,Utah,Salt Lake County,30547.0,40.62035188350187,-111.9860469169242,building
Digital Realty Silicon Valley SC1,Digital Realty,California,Santa Clara County,297948.0,37.36168658658687,-121.94391134202756,building
QES Computers,,California,Alameda County,941.0,37.699475300043446,-121.90379949999844,building
Equinix SE3 Data Center,Equinix,Washington,King County,12575.0,47.61442272967249,-122.33974344575807,building
QTS Piscataway Data Center,Quality Technology Services,New Jersey,Middlesex County,343444.0,40.55696486399719,-74.48400692707673,building
AiNET,,Maryland,Prince George's County,43057.0,39.052822508078144,-76.92590821703205,building
Microsoft,Microsoft,Texas,Bexar County,258191.0,29.478216376231007,-98.69072125219772,building
Microsoft San Antonio,Microsoft,Texas,Bexar County,478642.0,29.479925996060736,-98.6926080915504,building
Microsoft,Microsoft,Texas,Bexar County,194916.0,29.48106634167372,-98.69655923476324,building
Unknown,Claro,Puerto Rico,San Juan Municipio,23137.0,18.446826968330527,-66.0516872147712,building
Lumen Norristown,Lumen Technologies,Pennsylvania,Montgomery County,34224.0,40.1270582669318,-75.40863781443159,building
Equinix DC7,Equinix,Virginia,Fairfax County,79709.0,38.90913922220713,-77.22055679495352,building
Element Critical VA1,,Virginia,Fairfax County,20483.0,38.9083675000258,-77.21974420009786,building
Pittock Block,,Oregon,Multnomah County,41556.0,45.52154358199719,-122.68070403612808,building
Data Center,Oregon Health & Science University,Oregon,Washington County,25297.0,45.52668379341888,-122.87550380152314,building
Cisco Allen,,Texas,Collin County,162023.0,33.135980195526706,-96.66095239322138,building
Unknown,,Oregon,Crook County,231830.0,44.29489361961425,-120.8839983863009,building
CSSNW Bellingham,CSS Communications,Washington,Whatcom County,4312.0,48.75726819331372,-122.480547528078,building
EdgeConneX CHI02,EdgeConneX,Illinois,Cook County,64358.0,42.001494373393264,-87.95256335815348,building
Equinix Chicago CH3,Equinix,Illinois,Cook County,135800.0,42.00115870787965,-87.95521312428228,building
Element Critical CH2,Element Critical,Illinois,DuPage County,44358.0,41.97422731222964,-87.9671757623118,building
Centersquare Elk Grove Village Data Center Campus ORD2,Centersquare,Illinois,DuPage County,198323.0,41.99204041535668,-87.95817200961845,building
Flexential Denver - Englewood,Flexential,Colorado,Douglas County,198772.0,39.55897087407264,-104.83755343632713,building
EdgeConneX Detroit DET01,EdgeConneX,Michigan,Oakland County,40574.0,42.4476969142348,-83.26266713633784,building
Lumen Austin 3,Lumen Technologies,Texas,Travis County,5068.0,30.261396172131168,-97.72359737399287,building
Alpheus DataCenter,Alpheus,Texas,Travis County,36089.0,30.261043226760545,-97.72210231000722,building
Digital Realty Austin AUS11,,Texas,Travis County,79985.0,30.21217551197644,-97.6957806400088,building
LightEdge Austin II,,Texas,Travis County,86445.0,30.20067632042548,-97.7070441537442,building
CyrusOne Austin Data Center II,,Texas,Travis County,77356.0,30.205929677925745,-97.69796494527762,building
Data Foundry Austin 1 Data Center,,Texas,Travis County,50461.0,30.215503976280196,-97.69607393452048,building
VISA Data Center,,Virginia,Loudoun County,349987.0,39.04872822028961,-77.4454155025337,building
LightEdge Austin I,,Texas,Travis County,30876.0,30.21429715095225,-97.7126675657396,building
Skybox Chicago I,Skybox,Illinois,Cook County,174575.0,41.99366849754896,-87.9735185179455,building
Hurricane Electric Fremont 1,Hurricane Electric,California,Alameda County,33640.0,37.48986462008944,-121.93101655253416,building
Unknown,Aligned Data Centers,Ohio,Erie County,633484.0,41.4324305009821,-82.71902751224367,building
Lumen Austin 1,,Texas,Travis County,74722.0,30.196499004972576,-97.71239983833571,building
Data Foundry - Texas 1,,Texas,Travis County,137095.0,30.198926082371678,-97.71378843935518,building
XO Fremont,XO,California,Alameda County,65815.0,37.47533720746737,-121.92211346250495,building
Hurricane Electric Fremont 2,Hurricane Electric,California,Alameda County,181268.0,37.471827238512944,-121.92031059714007,building
Element Critical,,Texas,Travis County,61978.0,30.342800020345656,-97.69617577010004,building
Element Critical CH1,Element Critical,Illinois,DuPage County,92076.0,41.97576175006559,-87.96468543810447,building
165 Halsey / Equinix NY1 / Databank EWR1,Tishman,New Jersey,Essex County,89363.0,40.73672574708444,-74.17392520750958,building
QTS Suwanee Data Center 1,Quality Technology Services,Georgia,Gwinnett County,310488.0,34.03538969563108,-84.06107488394335,building
QTS Suwanee Data Center 2,Quality Technology Services,Georgia,Gwinnett County,360379.0,34.03709880816788,-84.0577034926908,building
TierPoint Little Rock,,Arkansas,Pulaski County,31845.0,34.75623579847398,-92.44472351005184,building
Equinix SV6,Equinix,California,Santa Clara County,21678.0,37.39960173949957,-122.01456250837072,building
Flexential Atlanta - Norcross,Flexential,Georgia,Gwinnett County,32309.0,33.95476871472785,-84.19856192066597,building
Centersquare Lynnwood SE1,Centersquare,Washington,Snohomish County,104460.0,47.84181079877673,-122.3016903104198,building
Unknown,Apple,Oregon,Crook County,9228.0,44.28941552511668,-120.87507749015272,building
Walmart Colorado Data Center,Walmart,Colorado,El Paso County,219542.0,38.98574620589175,-104.78726998003246,building
Verizon,,Nebraska,Douglas County,11836.0,41.33832138450139,-96.0277741269746,building
Verizon,,Nebraska,Douglas County,87375.0,41.33843614997797,-96.02861432583268,building
George C. Wallace Alabama Supercomputer Center,Alabama Supercomputer Authority,Alabama,Madison County,14919.0,34.73654090277783,-86.67309882783594,building
Digital Realty Chicago ORD12,Digital Realty,Illinois,Cook County,90165.0,41.92837828612005,-87.85923594325138,building
Unknown,,Washington,Grant County,36918.0,47.23763280547861,-119.86448737759343,building
Microsoft,Microsoft,Washington,Grant County,151246.0,47.23947854795628,-119.88299787007462,building
Microsoft,Microsoft,Washington,Grant County,147922.0,47.23857484529072,-119.88308360926234,building
Unknown,,Washington,Grant County,46835.0,47.23948769629937,-119.85940592515068,building
Microsoft CYS Datacenter,Microsoft,Wyoming,Laramie County,8353216.0,41.12341444962218,-104.90530165717428,campus
Unknown,,Wyoming,Laramie County,140780.0,41.1262309898459,-104.90187602195962,building
KOMO Plaza East,,Washington,King County,45743.0,47.619324932166734,-122.34815288067006,building
KOMO Plaza West,,Washington,King County,20239.0,47.61891975961567,-122.34859631775392,building
Fidelity,Fidelity,Nebraska,Sarpy County,40714.0,41.16546905416773,-96.08338762268534,building
Unknown,Centurylink,California,Los Angeles County,71500.0,33.91772905166227,-118.38631267027328,building
Serverfarm - LAX1,Serverfarm LLC.,California,Los Angeles County,119102.0,33.92174167558056,-118.38643608724033,building
DRT LAX12,Digital Realty,California,Los Angeles County,113310.0,33.9156488974591,-118.38463005026092,building
Google - Thornton,Google,Colorado,Adams County,86059.0,39.92241855755477,-104.98324467111505,building
DRT LAX10,,California,Los Angeles County,66979.0,34.04732574551566,-118.25751427697324,building
One Wilshire,,California,Los Angeles County,43850.0,34.04789230531704,-118.25554585155656,building
UF Research Computing Center,University of Florida,Florida,Alachua County,36370.0,29.672591133291224,-82.29992999372256,building
"CyrusOne NVA1, NVA2 & NVA3",CyrusOne,Virginia,Loudoun County,265601.0,39.02594651093395,-77.41452291234779,building
NAP of the Americas,,Florida,Miami-Dade County,122625.0,25.782378977030262,-80.19307541186281,building
Unknown,,Florida,Miami-Dade County,15911.0,25.79754440402661,-80.230033722435,building
CyrusOne NVA5,CyrusOne,Virginia,Loudoun County,506948.0,39.02432710048146,-77.43403366059391,building
Microsoft,Microsoft,Iowa,Dallas County,39146.0,41.540615955851,-93.82494906980826,building
Facebook Altoona Data Center 1,Meta,Iowa,Polk County,315400.0,41.6642411277008,-93.51472775765038,building
Facebook Altoona Data Center 2,Meta,Iowa,Polk County,307370.0,41.66553719114288,-93.5081704115336,building
Lumen Technologies,,California,Orange County,85658.0,33.716777907497594,-117.80580094927475,building
Lumen,Lumen Technologies,Washington,Spokane County,25399.0,47.654225584825305,-117.42000258764048,building
Unknown,,Wisconsin,Dane County,9176.0,43.06728877873921,-89.43673598135521,building
Equinix CU2,Equinix,Virginia,Culpeper County,1299936.0,38.454936889103365,-77.97818714607277,campus
Unknown,,California,Santa Clara County,102004.0,37.33363768871057,-121.88797542273252,building
Unknown,,New Jersey,Hudson County,150951.0,40.78413403768732,-74.06556019989502,building
Evocative Secaucus,Evocative,New Jersey,Hudson County,101304.0,40.787550185315126,-74.06804834898094,building
BT Radianz: 492 River Road,bt,New Jersey,Essex County,107857.0,40.82145355154189,-74.13418574563293,building
Time Warner Datacenter,,Colorado,Arapahoe County,33804.0,39.5989600863557,-104.8603774822199,building
Time Warner Datacenter,,Colorado,Arapahoe County,61435.0,39.59993080115642,-104.86018232055083,building
CyrusOne Austin Data Center III,,Texas,Travis County,189921.0,30.206993743520524,-97.7011142781365,building
Apollo Cable Landing Station,Apollo,New Jersey,Monmouth County,25904.0,40.15704355065648,-74.10158204974093,building
Cable & Wireless Cable Landing Station,,New York,Suffolk County,36746.0,40.84365992460773,-72.88334530997138,building
Equinix Ashburn DC10,Equinix,Virginia,Loudoun County,152397.0,39.02101419483995,-77.45151283533546,building
Amazon Web Services Datacenter Complex,Amazon Web Services,Virginia,Loudoun County,1088049.0,39.0265748165722,-77.45106545332197,campus
Amazon Web Services,Amazon Web Services,Virginia,Loudoun County,1022344.0,39.02886985735719,-77.4586618970949,campus
Amazon IAD-61,Amazon Web Services,Virginia,Loudoun County,152289.0,38.91580512574743,-77.49198694607598,building
Unknown,,Virginia,Loudoun County,709715.0,38.9865020849492,-77.44219586774605,campus
Amazon IAD51,Amazon Web Services,Virginia,Loudoun County,64127.0,38.991413813734994,-77.43650684069107,building
Amazon IAD56,Amazon Web Services,Virginia,Loudoun County,78441.0,38.990567610094665,-77.43706177436276,building
Amazon IAD16,Amazon Web Services,Virginia,Loudoun County,75817.0,38.99069899784283,-77.44882479290187,building
Amazon IAD15,Amazon Web Services,Virginia,Loudoun County,103452.0,38.99169289545036,-77.44857953268574,building
Amazon IAD14,Amazon Web Services,Virginia,Prince William County,118192.0,38.78993178096453,-77.54821678521624,building
Amazon IAD59,Amazon Web Services,Virginia,Prince William County,127281.0,38.79222600770484,-77.54844963730864,building
Amazon IAD52,Amazon Web Services,Virginia,Prince William County,126699.0,38.79106882111887,-77.54837196346583,building
Amazon Web Services Datacenter Complex,Amazon Web Services,Ohio,Licking County,1106310.0,40.09388273554784,-82.75171093377944,campus
Amazon AWS: Hilliard Data Center,Amazon Web Services us-east-2 datacenter,Ohio,Franklin County,2578490.0,40.05990219147888,-83.13425799033122,campus
Unknown,,Oregon,Umatilla County,2605.0,45.91583559984652,-119.26632355,building
Unknown,,Oregon,Umatilla County,2608.0,45.915835599846574,-119.2665274,building
Unknown,,Oregon,Umatilla County,2605.0,45.91583559984652,-119.26672585,building
Unknown,,Oregon,Umatilla County,2605.0,45.91583559984655,-119.26711215,building
Unknown,,Oregon,Umatilla County,2605.0,45.91584309984662,-119.26731594999998,building
Unknown,,Oregon,Umatilla County,2605.0,45.91583189984655,-119.26751175,building
Unknown,,Oregon,Umatilla County,2605.0,45.91583559984655,-119.26771695000002,building
Amazon PDX2,Amazon Web Services,Oregon,Umatilla County,133053.0,45.91640356429687,-119.26777584933068,building
Amazon Web Services us-west-2,Amazon Web Services,Oregon,Morrow County,127483.0,45.84100319369004,-119.65276874957644,building
Amazon Web Services us-west-2,Amazon Web Services,Oregon,Morrow County,267452.0,45.85223533738975,-119.62988821726834,building
Amazon Web Services us-west-2,Amazon Web Services,Oregon,Morrow County,103260.0,45.85088075126984,-119.6305237000272,building
Equinix San Jose SV3,Equinix,California,Santa Clara County,109684.0,37.38826955704538,-121.88842909046676,building
365 Main Street Data Center,Digital Realty,California,San Francisco County,39318.0,37.78873103633594,-122.39046904827536,building
Meta Forest City datacenter,Meta,North Carolina,Rutherford County,241126.0,35.3142312569782,-81.82213877550394,building
Meta Forest City datacenter,Meta,North Carolina,Rutherford County,244176.0,35.31737236865609,-81.82632689449466,building
Unknown,NTT Limited,California,Santa Clara County,75249.0,37.40390424000007,-121.88929689106432,building
Csquare SFO1,Csquare,California,Santa Clara County,83921.0,37.37043804478318,-121.96982954691394,building
Unknown,Vantage,California,Santa Clara County,75686.0,37.371778697164096,-121.97250520730036,building
Intergate Columbia B,Sabey Data Centers,Washington,Douglas County,192887.0,47.40716362579416,-120.1874901793035,building
Intergate Columbia A,Sabey Data Centers,Washington,Douglas County,262378.0,47.40871425585381,-120.18929355566496,building
Intergate Columbia,,Washington,Douglas County,2771098.0,47.40758787947685,-120.19173054919484,campus
Unknown,,Virginia,Loudoun County,35740.0,38.99422739840353,-77.44818874268246,building
Centersquare IAD4-A,Centersquare,Virginia,Loudoun County,77749.0,39.02173368633118,-77.45274689712927,building
AWS Building E,Amazon Web Services,Virginia,Loudoun County,153355.0,39.00505158640794,-77.48561242978808,building
Digital Realty New Jersey EWR20,Digital Realty,New Jersey,Passaic County,29614.0,40.82992945585005,-74.12674913164862,building
CyrusOne Somerset,CyrusOne,New Jersey,Somerset County,318583.0,40.537986381868514,-74.54565865822576,building
BNY Mellon Somerset,,New Jersey,Somerset County,121002.0,40.53601964911133,-74.5534089707814,building
Unknown,Digital Realty,New Jersey,Somerset County,125668.0,40.5375383526,-74.55554039982248,building
Digital Realty New Jersey EWR21,Digital Realty,New Jersey,Passaic County,71645.0,40.83058580151704,-74.12451439724033,building
Unknown,Centurylink,California,Los Angeles County,43140.0,34.19986910792885,-118.34378887471212,building
Amazon IAD78,Amazon Web Services,Virginia,Loudoun County,147979.0,39.02636804262541,-77.44952022668694,building
Amazon IAD79,Amazon Web Services,Virginia,Loudoun County,148678.0,39.026357370464034,-77.45087034712718,building
Unknown,,Nevada,Washoe County,276687.0,39.56710538351869,-119.54857352752408,building
Kaiser Data Center,,California,Napa County,162791.0,38.254085135435545,-122.2730981200017,building
Lumen Dallas - 3180 Irving Blvd.,Lumen Technologies,Texas,Dallas County,80859.0,32.806954885472585,-96.86858877539872,building
Prime DFW01-01,Prime,Texas,Dallas County,88881.0,32.83796688361756,-96.87839306215342,building
Lumen Dallas 6,Lumen Technologies,Texas,Dallas County,12977.0,32.82799793180718,-96.88438205812224,building
Digital Realty DFW36,Digital Realty,Texas,Dallas County,24499.0,32.82754986077816,-96.87374979541195,building
DataBank Dallas Empire Central Data Center,DataBank,Texas,Dallas County,67717.0,32.82173820429836,-96.87359763406624,building
TierPoint Dallas Data Center,TierPoint,Texas,Dallas County,71358.0,32.807972677629614,-96.85735461854576,building
Amazon IAD87,Amazon Web Services,Virginia,Loudoun County,147390.0,38.99181366629844,-77.44116774003697,building
Amazon IAD88,Amazon Web Services,Virginia,Loudoun County,147468.0,38.99096434751658,-77.44187048800238,building
Verizon,Verizon,Colorado,Arapahoe County,8059.0,39.58924804995954,-104.87793294999813,building
Stream Data Centers PHX-1,,Arizona,Maricopa County,413250.0,33.41949068772329,-112.35998844515764,building
Live Oak Data Center,,Texas,Dallas County,49853.0,32.78371232090692,-96.79457490220037,building
Flexential Portland - Hillsboro 2,Flexential,Oregon,Washington County,214259.0,45.558285521867774,-122.91709178475038,building
NYSE Data Center,nyse,New Jersey,Bergen County,200804.0,41.078302339181775,-74.15291807503208,building
AT&T,,California,Los Angeles County,17388.0,34.57998399250564,-118.11402444850228,building
Unknown,,Colorado,El Paso County,42627.0,38.80265970986479,-104.52196604272532,building
Juniper,,Oregon,Clackamas County,24854.0,45.31873065187943,-122.76587362101382,building
Unknown,,Texas,Collin County,108401.0,33.00929860932998,-96.6765444557892,building
Tierpoint Dallas-Allen,,Texas,Collin County,30651.0,33.137934223084564,-96.65737558964425,building
Unknown,DXC Technology,Texas,Harris County,352246.0,30.018697853415755,-95.86367622394388,building
Amazon IAD73,Amazon Web Services,Virginia,Prince William County,146162.0,38.77797945837826,-77.55909921912577,building
Amazon IAD74,Amazon Web Services,Virginia,Prince William County,147480.0,38.77743693462092,-77.55789122919084,building
H5 Data Center,,Ohio,Cuyahoga County,71439.0,41.50635749142958,-81.6835984766603,building
TPx Colocation Datacenter,TPx Communications,California,Orange County,37065.0,33.70750645042811,-117.84410419953558,building
Unknown,,California,Los Angeles County,25505.0,34.04791495021397,-118.2555689501841,campus
Cologix Jacksonville JAX1,,Florida,Duval County,30201.0,30.33142981885113,-81.66242566977944,building
Microsoft,Microsoft,Washington,Grant County,143439.0,47.23948680981334,-119.8874068597649,building
Unknown,,Washington,Grant County,44446.0,47.23856068621164,-119.86445275389522,building
Unknown,,Washington,Grant County,138534.0,47.24760077002591,-119.82542905367347,building
Facebook Fort Worth Datacenter,Meta,Texas,Tarrant County,634395.0,32.98378403788744,-97.25934313221772,building
Data Center Lenexa,,Kansas,Johnson County,44552.0,38.92517007028676,-94.7702895910638,building
CITIGROUP TECHNOLOGY INC,,Texas,Denton County,242536.0,33.00638147848431,-97.24529013457187,building
QTS Data Center,Quality Technology Services,Texas,Tarrant County,277996.0,32.98885535912591,-97.25920173475927,building
Lowe's Data Center,Lowe's,Texas,Bexar County,55066.0,29.472846040284345,-98.68954665082217,building
Unknown,CHRISTUS Health,Texas,Bexar County,48815.0,29.47034447909316,-98.68620953197288,building
Unknown,Frost Bank,Texas,Bexar County,68591.0,29.470223440456333,-98.68765019924956,building
CyrusOne San Antonio I,CyrusOne,Texas,Bexar County,102327.0,29.46655501468974,-98.68811007066918,building
Valero Wiserman,Valero,Texas,Bexar County,58304.0,29.47428541340784,-98.68006447609892,building
Stream San Antonio II,,Texas,Bexar County,71324.0,29.472016548814928,-98.6717367823064,building
CyrusOne San Antonio II,CyrusOne,Texas,Bexar County,108554.0,29.47084945067936,-98.67299896081856,building
CyrusOne San Antonio III,CyrusOne,Texas,Bexar County,100537.0,29.47004426742346,-98.67219273226,building
Spectrum Charlotte National Data Center,,North Carolina,Mecklenburg County,93604.0,35.14278901717108,-80.91620847296733,building
Unknown,,Oregon,Crook County,377457.0,44.28888249144302,-120.87012500756974,building
Cyxtera Tampa TP1,Cyxtera,Florida,Hillsborough County,97332.0,27.94553184264413,-82.35116156727058,building
QTS Irving - Dallas Data Center Campus,Quality Technology Services,Texas,Dallas County,306213.0,32.89728320232041,-96.98278763369082,building
Centersquare Lisle ORD4 Data Center,Centersquare,Illinois,DuPage County,361205.0,41.80234062646393,-88.09488558888414,building
GoDaddy - Gilbert,,Arizona,Maricopa County,91811.0,33.36191382983084,-111.83930897383505,building
AT&T Center,American Telephone & Telegraph,California,San Diego County,88910.0,32.74757512655355,-117.15894804229632,building
Unknown,,Tennessee,Davidson County,10355.0,36.14048086552297,-86.76414722152771,building
CenturyLink,,Georgia,Fulton County,23046.0,33.76514415943699,-84.38373631254974,building
Unknown,,Wyoming,Laramie County,62914.0,41.124032949239215,-104.8980886,building
Unknown,,Wyoming,Laramie County,67797.0,41.124036799320784,-104.8992687499629,building
Unknown,,Wyoming,Laramie County,62555.0,41.12528359932865,-104.89927145,building
Unknown,,Wyoming,Laramie County,63264.0,41.12528676311575,-104.89808331876364,building
Expedient Pittsburgh South,Expedient,Pennsylvania,Allegheny County,27441.0,40.42737727783291,-80.04253151075422,building
Centersquare: Phoenix - (PHX1 - Mesa),Centersquare,Arizona,Maricopa County,57992.0,33.421284262350255,-111.85899423023751,building
Unknown,DXC Technology,Texas,Harris County,264173.0,29.99520064778405,-95.56325379028314,building
Unknown,DXC Technology,Texas,Harris County,113970.0,29.997307161324283,-95.56398536553904,building
Liquid Web,,Michigan,Eaton County,23079.0,42.68795132456832,-84.64299464110024,building
Amazon IAD63,Amazon Web Services,Virginia,Loudoun County,143980.0,38.9168847531172,-77.49325147292357,building
"Liquid Web, Inc",,Michigan,Eaton County,72843.0,42.70539040001097,-84.66608910001226,building
Amazon IAD62,Amazon Web Services,Virginia,Loudoun County,149941.0,38.94932164782646,-77.51987469094145,building
Unknown,,Georgia,Cobb County,18558.0,34.0707036329806,-84.67590752731094,building
Altoona Meta Data Center,Meta,Iowa,Polk County,26568553.0,41.66969372876868,-93.51143854964342,campus
ADP South Dakota,,South Dakota,Minnehaha County,243125.0,43.59991456599551,-96.79470699634729,building
TJX Corporate Techno,,Ohio,Franklin County,102681.0,40.10386011394031,-82.81062585456809,building
Compugen New Albany,,Ohio,Franklin County,44250.0,40.10455003825464,-82.80494540049781,building
Compugen New Albany,,Ohio,Franklin County,32222.0,40.10367720079985,-82.80893932428502,building
Flexential Dallas - Richardson,Flexential,Texas,Collin County,68520.0,32.99481331799373,-96.7525015956488,building
Experian McKinney Data Center,,Texas,Collin County,76624.0,33.17179580069162,-96.72550500041572,building
Unknown,,Ohio,Franklin County,56266.0,40.11571701578424,-83.00256546104873,building
Stack Infrastructure,Stack Infrastructure,California,Santa Clara County,78105.0,37.40255873642884,-121.89338203369856,building
Stack Infrastructure,Stack Infrastructure,California,Santa Clara County,107993.0,37.40221252579365,-121.89238428102912,building
Carfax,,Missouri,Boone County,39487.0,38.9235119701765,-92.28862384290709,building
Facebook Altoona Data Center 3,Meta,Iowa,Polk County,377755.0,41.66707142244616,-93.50646556541808,building
Amazon IAD71,Amazon Web Services,Virginia,Loudoun County,121176.0,39.02790807231044,-77.4575028799799,building
Amazon IAD50,Amazon Web Services,Virginia,Loudoun County,202194.0,39.02956976120693,-77.45968288935686,building
Amazon IAD60,Amazon Web Services,Virginia,Loudoun County,110965.0,39.02877370248201,-77.4582461041282,building
Amazon Web Services  CMH50,Amazon Web Services,Ohio,Licking County,161683.0,40.09462975659448,-82.75133937578003,building
Unknown,,Arizona,Maricopa County,1263277.0,33.34702102097167,-111.60413892780116,building
Apple Mesa Data Center,Apple,Arizona,Maricopa County,3983906.0,33.34679827603292,-111.60431805940924,campus
Thin-nology,,Texas,Travis County,9209.0,30.421141229242764,-97.59160304354108,building
CyrusOne Norwalk,CyrusOne,Connecticut,Western Connecticut Planning Region,77778.0,41.11309235035119,-73.38864944847491,building
Data Foundry - Texas 2,,Texas,Travis County,104857.0,30.19958813781982,-97.71307641626,building
Meta Los Lunas Data Center,Meta,New Mexico,Valencia County,21836553.0,34.8302282334924,-106.77989614196927,campus
Google Datacenter - Douglas County,Google,Georgia,Douglas County,2608502.0,33.7505902365265,-84.58522343651347,campus
Google,Google,Iowa,Pottawattamie County,2304742.0,41.22165804807755,-95.86449775401766,campus
Microsoft - Azure Datacenter,Microsoft,Illinois,Cook County,306766.0,41.923005619536646,-87.91824122484651,building
Cloud Storage Corp,,Kansas,Ellis County,11561.0,38.87213220021316,-99.30018745000542,building
Switch Las Vegas 8,Switch,Nevada,Clark County,264412.0,36.057833939238215,-115.21425795862818,building
Switch Las Vegas 9,Switch,Nevada,Clark County,286176.0,36.055707545706994,-115.21962787172576,building
Unknown,,Texas,Harris County,98195.0,29.82150611372374,-95.57078462369284,building
Information Technology Data Center,Phillips Exeter Academy,New Hampshire,Rockingham County,7733.0,42.982091089771785,-70.9505927450425,building
Digital Fortress Lynnwood,,Washington,Snohomish County,24944.0,47.82242518543509,-122.28956096659816,building
Unknown,,Texas,Collin County,33064.0,33.13780536915544,-96.6559259339588,building
CyrusOne Allen,CyrusOne,Texas,Collin County,271378.0,33.13852055876386,-96.65995157388971,building
Amazon Web Services us-west-2,Amazon Web Services,Oregon,Morrow County,151857.0,45.8404435353901,-119.65497937870389,building
Amazon PDX51/54,Amazon Web Services,Oregon,Umatilla County,260806.0,45.91744776004561,-119.26773387516516,building
Amazon IAD80,Amazon Web Services,Virginia,Loudoun County,150443.0,39.027108657277445,-77.4528288502262,building
Equinix Ashburn DC12,Equinix,Virginia,Loudoun County,96380.0,39.0230066415448,-77.44975813852024,building
Stream DFW IV,Stream,Texas,Collin County,19684.0,33.000144175089304,-96.66164643777844,building
Rackspace Richardson DFW3,Rackspace,Texas,Dallas County,112950.0,32.96478869284149,-96.71587662115734,building
Digital Realty Dallas DFW17,Digital Realty,Texas,Dallas County,83615.0,32.966281179214505,-96.71321200734354,building
Digital Realty Dallas DFW29,Digital Realty,Texas,Dallas County,122436.0,32.96723267704503,-96.71054642217494,building
Unknown,,Texas,Dallas County,62460.0,32.96625357197764,-96.71119611224064,building
Digital Realty Dallas DFW28,Digital Realty,Texas,Dallas County,122015.0,32.96724066068804,-96.7133081589403,building
Digital Realty Dallas DFW35,Digital Realty,Texas,Dallas County,116539.0,32.96504621467304,-96.71029113488274,building
Digital Realty Dallas DFW18,Digital Realty,Texas,Dallas County,222335.0,32.96520380450456,-96.71260861653484,building
Digital Realty Dallas DFW16,Digital Realty,Texas,Dallas County,109470.0,32.96607650613046,-96.7155872032112,building
Digital Realty Northern Virginia IAD36,Digital Realty,Virginia,Loudoun County,112516.0,39.00155183162294,-77.47934369722755,building
Digital Realty Northern Virginia IAD35,Digital Realty,Virginia,Loudoun County,206225.0,39.00051142251577,-77.48059544638194,building
Digital Realty Northern Virginia IAD37,Digital Realty,Virginia,Loudoun County,144298.0,39.00000986435985,-77.47806996501424,building
Digital Realty Northern Virginia IAD38,Digital Realty,Virginia,Loudoun County,114543.0,39.00110985023303,-77.47718416154996,building
State Farm Data Center,,Kansas,Johnson County,198601.0,38.94011284438559,-94.86768784080613,building
U.S. Bank National Data Process Center,,Kansas,Johnson County,162098.0,38.93564309846072,-94.8644712263048,building
Equinix SV10,Equinix,California,Santa Clara County,86340.0,37.241198528847725,-121.78476265158876,building
Unknown,,New Jersey,Gloucester County,41058.0,39.83093011411571,-75.19532326682351,building
Unknown,Verizon Wireless,Nebraska,Douglas County,38873.0,41.22040844920032,-96.14761886051996,building
Unknown,,Florida,Orange County,107548.0,28.61746822748528,-81.39343863284896,building
Google,Google,South Carolina,Berkeley County,146623.0,33.064272175156404,-80.04145344691864,building
TierPoint Baltimore BWI,,Maryland,Anne Arundel County,33372.0,39.213451704108,-76.6828450662765,building
NTT Ashburn VA2 Data Center,NTT,Virginia,Loudoun County,74197.0,39.02501032438008,-77.45763923535499,building
Strata Networks,,Utah,Uintah County,12971.0,40.45659345173178,-109.52899881097022,building
Goldman Sachs,,New Jersey,Somerset County,276729.0,40.570372202161614,-74.67032960036524,building
Mapletree Industrial,,Georgia,Fulton County,116842.0,34.09658361289754,-84.23739137243545,building
Switch Las Vegas 11,Switch,Nevada,Clark County,230261.0,36.05588519591084,-115.21413677748544,building
Genome Data Center,Washington University in St. Louis,Missouri,St. Louis city,24519.0,38.63656882805553,-90.25539338967404,building
365 Bridgewater NJ,,New Jersey,Somerset County,28468.0,40.58147446747312,-74.57387794234592,building
Google Berkeley County Data Center,Google,South Carolina,Berkeley County,8310940.0,33.06378014460109,-80.04215854242156,campus
AngelTrax Data Center,AngelTrax Mobile Video Surveillance Solutions,Alabama,Houston County,10736.0,31.231904196338384,-85.45584883805839,building
Meta,Meta,New Mexico,Valencia County,654433.0,34.830246608460115,-106.78382909936067,building
Amazon Web Services us-west-2,Amazon Web Services,Oregon,Morrow County,284033.0,45.841413570882,-119.65793309033624,building
Centeris SH2 Build-to-Suit,,Washington,Pierce County,93539.0,47.15884380411734,-122.27986153681454,building
Centeris SH1 Colocation,,Washington,Pierce County,115786.0,47.16085522590024,-122.27930643656472,building
Ascent - Atlanta Data Center,Ascent,Georgia,Fulton County,595317.0,34.05713671179483,-84.27302456443608,campus
Microsoft TRP2,Microsoft,Texas,Bexar County,169781.0,29.41195432542485,-98.80398520347534,building
Microsoft TRP1,Microsoft,Texas,Bexar County,177468.0,29.41201232003809,-98.80273022506276,building
CyrusOne Quincy,CyrusOne,Washington,Grant County,1779563.0,47.243696120678365,-119.86960399091237,campus
Digital Realty ACC7,Digital Realty,Virginia,Loudoun County,409481.0,39.01753209282454,-77.46564263578887,building
NTT Ashburn Campus,,Virginia,Loudoun County,2116133.0,39.01773031842296,-77.47198105085518,campus
NTT Ashburn VA3 Data Center,NTT,Virginia,Loudoun County,231924.0,39.01718232920256,-77.47037644027546,building
Digital Realty ACC9,Digital Realty,Virginia,Loudoun County,329257.0,39.015466253556106,-77.46731852528755,building
Flexential Dallas - Plano,Flexential,Texas,Collin County,217850.0,33.00705207090953,-96.66635359923826,building
Unknown,,North Carolina,Catawba County,207083.0,35.58705991324804,-81.26027296867808,building
Expedient Milwaukee,,Wisconsin,Milwaukee County,26099.0,42.86317702172799,-87.97785780206577,building
Amazon Web Services,Amazon IAD85,Virginia,Prince William County,149064.0,38.779381509444576,-77.54172453948773,building
Oxford Networks,FirstLight,Maine,Cumberland County,55383.0,43.895071082625066,-69.92315054547124,building
Meta New Albany Data Center,Meta,Ohio,Licking County,663238.0,40.06840826479164,-82.7503408359755,building
Rice Data Center,,Texas,Harris County,25487.0,29.65814636487484,-95.44332796622496,building
Facebook Fort Worth Datacenter,Meta,Texas,Tarrant County,435206.0,32.984993663270515,-97.25507514509351,building
Amazon Web Services,Amazon Web Services,Ohio,Franklin County,161809.0,40.06115215749759,-83.13517288858029,building
Microsoft Boydton Data Center,Microsoft,Virginia,Mecklenburg County,11273954.0,36.685373308018725,-78.37655327186563,campus
Bank of America Data Center,,Virginia,Henrico County,2209960.0,37.49580861055279,-77.23828608770066,campus
Amazon IAD68,Amazon Web Services,Virginia,Loudoun County,181794.0,38.94868695570169,-77.52095152964785,building
Amazon IAD81,Amazon Web Services,Virginia,Loudoun County,184907.0,38.94838582329714,-77.52183101959601,building
Google,Google,Virginia,Loudoun County,215928.0,38.943153938233976,-77.5243689977558,building
Amazon IAD120,Amazon Web Services,Virginia,Loudoun County,188334.0,38.95792208165856,-77.49806149327199,building
Amazon IAD121,Amazon Web Services,Virginia,Loudoun County,154814.0,38.95678305314267,-77.49778688217901,building
Microsoft,Microsoft,Washington,Grant County,112036.0,47.23765678799786,-119.88757256028282,building
Microsoft,Microsoft,Washington,Grant County,116001.0,47.23762824027307,-119.88319809847748,building
Microsoft,Microsoft,Washington,Grant County,157191.0,47.23672160801631,-119.88329009579328,building
Microsoft,Microsoft,Washington,Grant County,162608.0,47.236737102694434,-119.88747588150468,building
Vantage WA12,,Washington,Grant County,124695.0,47.25394644110428,-119.81372107907391,building
Unknown,,Virginia,Loudoun County,48591.0,39.01202683336312,-77.47156052841791,building
Unknown,,Virginia,Loudoun County,402308.0,38.99945874398648,-77.4498761385079,campus
Unknown,,Virginia,Prince William County,989045.0,38.79098152194525,-77.54831684502851,campus
Amazon IAD58,Amazon Web Services,Virginia,Loudoun County,136770.0,38.986278739590496,-77.44184182852638,building
Amazon IAD57,Amazon Web Services,Virginia,Loudoun County,116533.0,38.98699723329166,-77.44263838662451,building
Amazon IAD64,Amazon Web Services,Virginia,Prince William County,147547.0,38.81513240657421,-77.65291934437082,building
Unknown,Amazon,Virginia,Prince William County,1278242.0,38.81581597741176,-77.65269565653946,campus
Amazon PDX57/60,Amazon Web Services,Oregon,Umatilla County,271590.0,45.913883188873065,-119.26771376022246,building
Amazon Web Services us-west-2,Amazon Web Services,Oregon,Morrow County,123601.0,45.84117425838994,-119.65544902618971,building
Amazon Web Services us-west-2,Amazon Web Services,Oregon,Morrow County,263671.0,45.853786061670256,-119.6300360999594,building
Amazon Web Services us-west-2,Amazon Web Services,Oregon,Morrow County,211981.0,45.84665532541318,-119.60370922412667,building
Microsoft MWH Data Center,Microsoft,Washington,Grant County,8381014.0,47.23776925865819,-119.88771018102906,campus
Google Taylor Lake Data Center,Google,Oregon,Wasco County,1100932.0,45.63852891759573,-121.20240398131143,campus
QTS Ashburn 1,Quality Technology Services,Virginia,Loudoun County,164144.0,38.99951534656983,-77.45017109526839,building
Digital Realty Northern Virginia IAD40,Digital Realty,Virginia,Loudoun County,244372.0,39.00645434248415,-77.46725431679586,building
Digital Realty Northern Virginia IAD39,Digital Realty,Virginia,Loudoun County,549223.0,39.0077179647985,-77.46762344628391,building
Digital Realty ACC10,Digital Realty,Virginia,Loudoun County,289043.0,39.01270664038011,-77.46553606881868,building
Unknown,GI Partners,Virginia,Loudoun County,224621.0,39.00065496674865,-77.43982021083254,building
Vantage VA11,Vantage Data Centers,Virginia,Loudoun County,127578.0,39.00239460734178,-77.43766056847713,building
Amazon IAD90,Amazon Web Services,Virginia,Loudoun County,147749.0,38.988603084770965,-77.41165153795028,building
Amazon IAD91,Amazon Web Services,Virginia,Loudoun County,149486.0,38.98784716047373,-77.4111191682655,building
Amazon IAD92,Amazon Web Services,Virginia,Loudoun County,149857.0,38.98694260549739,-77.41047540861862,building
Amazon IAD144,Amazon Web Services,Virginia,Loudoun County,150384.0,38.981642917536455,-77.42742182982602,building
CyrusOne NVA8,CyrusOne,Virginia,Loudoun County,154011.0,39.021167383773054,-77.41322000920242,building
Amazon IAD98,Amazon Web Services,Virginia,Loudoun County,150826.0,39.02022492908554,-77.43388565556346,building
Amazon IAD99,Amazon Web Services,Virginia,Loudoun County,150804.0,39.01916893584491,-77.43402989103284,building
Amazon IAD114,Amazon Web Services,Virginia,Loudoun County,148005.0,39.03549407754049,-77.45069857065232,building
Amazon IAD115,Amazon Web Services,Virginia,Loudoun County,146333.0,39.03629402145032,-77.44979480828684,building
Amazon IAD65,Amazon Web Services,Virginia,Loudoun County,151356.0,38.917010722177295,-77.49436645394151,building
Amazon IAD150,Amazon Web Services,Virginia,Loudoun County,213595.0,38.91607635389445,-77.47725088518797,building
Unknown,,New Mexico,Bernalillo County,43011.0,35.04834871785767,-106.5421751246662,building
Stonewall Creek Business Park,Google,Virginia,Loudoun County,1291753.0,39.05143172924,-77.53939966702264,campus
Unknown,,Oregon,Crook County,344665.0,44.28727726878123,-120.87021590519326,building
Unknown,,Oregon,Crook County,328376.0,44.29368315614664,-120.88151890467708,building
Amazon PDX80,Amazon Web Services,Oregon,Umatilla County,215703.0,45.79780879526037,-119.36661621765712,building
QTS Richmond Data Center,Quality Technology Services,Virginia,Henrico County,3801096.0,37.48900065235947,-77.24588647315302,campus
Unknown,,Virginia,Loudoun County,144382.0,39.01541716578102,-77.47827343879716,building
Google Montgomery Data Center,Google LLC,Tennessee,Montgomery County,26612163.0,36.62857603307224,-87.2600112195247,campus
Google Data Center,Google,Virginia,Loudoun County,140634.0,39.05264058118304,-77.53957659001316,building
Unknown,University Corporation for Atmospheric Research,Wyoming,Laramie County,571755.0,41.12869983787105,-104.89703157236752,campus
Centersquare Atlanta ATL1,,Georgia,Douglas County,249314.0,33.74422840992556,-84.58121647346032,building
Digital Realty CH3,Digital Realty,Illinois,Cook County,348220.0,41.99439647260606,-87.96490377244766,building
Digital Realty CH2,Digital Realty,Illinois,Cook County,302974.0,41.99446382316948,-87.95773561339534,building
DataBank Plano Data Center,,Texas,Collin County,375691.0,33.08756902002124,-96.81513069944252,campus
Equinix,Equinix,New Jersey,Hudson County,535110.0,40.77506789883385,-74.0686769901749,campus
Equinix Secaucus NY6,Equinix,New Jersey,Hudson County,70938.0,40.77751886890039,-74.07270033730751,building
Google Data Center,Google,Virginia,Loudoun County,2143143.0,38.94277143488421,-77.52625036711285,campus
Amazon Fadeley III,,Virginia,Loudoun County,1654964.0,38.94833223285257,-77.5215991553083,campus
Skybox Houston One,Skybox,Texas,Harris County,344540.0,29.80286842346413,-95.7554503307746,campus
Google Jackson County Data Center,Google LLC,Alabama,Jackson County,7582142.0,34.914333709146234,-85.74826082398661,campus
Sarpy Meta Data Center,Meta,Nebraska,Sarpy County,5922319.0,41.121753730397295,-96.14372146857282,campus
PSE&G Delivery Emergency Response Center,PSE&G,New Jersey,Somerset County,85030.0,40.57989412652374,-74.51939325696017,building
T5 Charlotte Campus,,North Carolina,Cleveland County,379990.0,35.25044990396285,-81.3950094307914,campus
Epic / Mayo Data Center,,Minnesota,Olmsted County,48317.0,44.07081644375691,-92.52212055150672,building
STACK New Albany,,Ohio,Franklin County,563283.0,40.106353701609386,-82.8007477594743,campus
Choctaw Nation of Oklahoma Data Center,Choctaw Nation of oklahoma,Oklahoma,Bryan County,13494.0,33.971721452767405,-96.4028549048576,building
QTS Data Center Bld 1,Quality Technology Services,Oregon,Washington County,157854.0,45.558767154104125,-122.92783045218717,building
Unknown,,New Jersey,Middlesex County,159389.0,40.584343135171615,-74.24350729682128,building
Flexential Salt Lake City - Downtown,Flexential,Utah,Salt Lake County,63362.0,40.756306581410776,-111.9548376637448,building
Oregon State Data Center,State of Oregon,Oregon,Marion County,46536.0,44.92654909196885,-123.00186141171868,building
Digital Realty PDX11 Data Center,Digital Realty,Oregon,Washington County,283056.0,45.56799342826786,-122.91685270250116,building
Flexential Fort Lauderdale,Flexential,Florida,Broward County,73580.0,26.190085718944182,-80.19329665075328,building
Unknown,,Texas,Montgomery County,126121.0,30.17778285074309,-95.4865263462616,building
Amazon IAD145,Amazon Web Services,Virginia,Loudoun County,103663.0,38.98255213281915,-77.4246254873571,building
Amazon Web Services IAD117,Amazon Web Services,Virginia,Loudoun County,102452.0,39.02369830815542,-77.41909467085335,building
Amazon Web Services IAD116,Amazon Web Services,Virginia,Loudoun County,102629.0,39.02434599828099,-77.42043928426207,building
Flexential Las Vegas - North,Flexential,Nevada,Clark County,110728.0,36.24816478211208,-115.10126087457564,building
Unknown,,Texas,Wichita County,39127.0,33.95337794611651,-98.5247312569212,building
Unknown,,Oregon,Deschutes County,11249.0,44.04740740013566,-121.3285496442757,building
Unknown,,Michigan,Genesee County,36835.0,42.968713165412495,-83.77960216531768,building
Unknown,,New Jersey,Somerset County,19551.0,40.59934510477914,-74.70962307676368,building
Unknown,,New Jersey,Somerset County,54527.0,40.59971850671678,-74.71011198716056,building
Meta,Meta,New Mexico,Valencia County,543736.0,34.83004000903251,-106.78034710972685,building
iGLASS Networks,,North Carolina,Wake County,8134.0,35.76675058444294,-78.7839857849851,building
Central Office,AT&T,Wisconsin,Walworth County,9001.0,42.83365364525283,-88.73398014165807,building
Unknown,,Montana,Granite County,1510.0,46.33213162016486,-113.29267194552416,building
Vital Records,,New Jersey,Somerset County,7942.0,40.52807180013584,-74.68281624993381,building
Verizon Wireless NE Headquarters,,New Jersey,Somerset County,156691.0,40.555692492579,-74.70559634852464,building
Meta Henrico Data Center,Meta,Virginia,Henrico County,588189.0,37.483928208517945,-77.23731114669016,building
Unknown,Involta,Wisconsin,Calumet County,60180.0,44.20445478438387,-88.34487612453424,building
Unknown,,Oregon,Crook County,630160.0,44.29909531760913,-120.879434601439,building
Unknown,,Oregon,Crook County,622980.0,44.30125484226488,-120.88988386659982,building
Unknown,US Signal,Michigan,Wayne County,24599.0,42.23532661902879,-83.44414059814616,building
Unknown,,Nevada,Washoe County,89831.0,39.56771439975202,-119.542362748536,building
Unknown,,Nevada,Washoe County,89571.0,39.5675010277547,-119.54320948328537,building
Unknown,,Nevada,Washoe County,88594.0,39.567160471410034,-119.54438836390534,building
Unknown,,Nevada,Washoe County,92133.0,39.56692084061534,-119.54522686760028,building
Unknown,,Nevada,Washoe County,90711.0,39.56575835137741,-119.54797410085597,building
Unknown,,Nevada,Washoe County,89076.0,39.56510625130509,-119.54768980080748,building
Allentown-TekPark,,Pennsylvania,Lehigh County,146248.0,40.54423619107065,-75.65431290741553,building
Meta,Meta,New Mexico,Valencia County,654617.0,34.83028297052059,-106.77647063706308,building
Unknown,,Colorado,Douglas County,28132.0,39.55907170105136,-104.83358763919368,building
PG&E Datacenter,,California,Solano County,55270.0,38.24625878204932,-122.06720998673867,building
CyrusOne PHX6,CyrusOne,Arizona,Maricopa County,98354.0,33.26757617844676,-111.88253182214665,building
Facebook Altoona Data Center 4,Meta,Iowa,Polk County,606958.0,41.66773731235317,-93.5163985612244,building
Digital Realty IAD41 (Building P),Digital Realty,Virginia,Loudoun County,396985.0,39.00867671486767,-77.45822142581041,building
Amazon IAD118,Amazon Web Services,Virginia,Loudoun County,105629.0,39.01850733590168,-77.43883923491136,building
Aligned Ashburn,Aligned,Virginia,Loudoun County,140140.0,39.01362014126083,-77.47057790756796,building
Equinix Ashburn DC15,Equinix,Virginia,Loudoun County,76665.0,39.02250015234666,-77.45025584399268,building
Sabey Intergate.Ashburn (Building A),Sabey Data Centers,Virginia,Loudoun County,131966.0,39.01449812159213,-77.4799880049684,building
NTT Ashburn VA5 Data Center,NTT,Virginia,Loudoun County,124046.0,39.01829557276318,-77.47261400700225,building
NTT Ashburn VA4 Data Center,NTT,Virginia,Loudoun County,160282.0,39.01986885247179,-77.4725949606788,building
CloudHQ LC1,CloudHQ,Virginia,Loudoun County,499194.0,39.01015664517334,-77.46278492885698,building
CloudHQ LC2,CloudHQ,Virginia,Loudoun County,252770.0,39.01176419603625,-77.46245654474913,building
Amazon IAD146,Amazon Web Services,Virginia,Loudoun County,103076.0,38.9967245725433,-77.43559835674785,building
PHX-10,Microsoft,Arizona,Maricopa County,246184.0,33.40794624396243,-112.36482981743816,building
Sarpy Meta Data Center,Meta,Nebraska,Sarpy County,6242843.0,41.12194722186616,-96.13364372425686,campus
Equinix Ashburn DC21,Equinix,Virginia,Loudoun County,78961.0,39.01182265065321,-77.45455808439559,building
Unknown,,New York,Westchester County,13426.0,40.95126975040576,-73.89790099960555,building
Meta New Albany Data Center,Meta,Ohio,Licking County,663286.0,40.06527171787832,-82.74890966242867,building
Unknown,,Washington,Grant County,216848.0,47.23709780537748,-119.8951561143571,building
EdgeCore,,Arizona,Maricopa County,112901.0,33.344131138754335,-111.6195525034396,building
Comcast,Comcast,Michigan,Wayne County,953.0,42.21390200001323,-83.19821400000001,building
SAP COS02,SAP,Colorado,El Paso County,47705.0,38.98888835974735,-104.78638139764936,building
Unknown,,Washington,Douglas County,102013.0,47.40724312100206,-120.2139654565477,building
Actapio,Actapio,Washington,Douglas County,362519.0,47.40741705535317,-120.21413428085418,campus
Unknown,,Washington,Douglas County,13946.0,47.39214942683649,-120.21746237329,building
Unknown,,Washington,Douglas County,4004.0,47.39179410004563,-120.21787734999982,building
Unknown,,Washington,Douglas County,4003.0,47.391756904098365,-120.2175143749647,building
Unknown,,Washington,Douglas County,7706.0,47.39175897510766,-120.2169013334627,building
Facebook Fort Worth Datacenter,Meta,Texas,Tarrant County,753193.0,32.98829583281708,-97.2554600255551,building
Charles Schwab Data Center,,Texas,Denton County,79688.0,33.004502129194734,-97.24615495491396,building
Amazon IAD140,Amazon Web Services,Virginia,Loudoun County,215095.0,38.98145515417609,-77.4175500441367,building
Amazon IAD141,Amazon Web Services,Virginia,Loudoun County,216850.0,38.98238771254631,-77.4167856863848,building
1623 Farnam,News-Press & Gazette Company,Nebraska,Douglas County,35689.0,41.25729103361583,-95.93784939082518,building
Credit Suisse: Clifton Data Center,,New Jersey,Passaic County,140278.0,40.83344999607061,-74.1402186895567,building
Unknown,,Tennessee,Davidson County,93318.0,36.03268133759001,-86.63779793677823,building
TierPoint,,Tennessee,Williamson County,285740.0,35.92450968308544,-86.85568727257493,campus
Amazon Web Services,Amazon Web Services,Ohio,Franklin County,151703.0,40.10257307151942,-83.1996986090437,building
Amazon Web Services,Amazon Web Services,Ohio,Franklin County,159123.0,40.10358662896317,-83.1997637520824,building
Unknown,,Tennessee,Williamson County,1834566.0,36.02321854497319,-86.7915321749878,campus
EdgeCore Digital,,Arizona,Maricopa County,1602504.0,33.3442978188128,-111.62196431898784,campus
Amazon IAD84,Amazon Web Services,Virginia,Prince William County,152692.0,38.8161031223026,-77.65249934084503,building
StrongMind,,Arizona,Maricopa County,20604.0,33.342616247713266,-111.84097388722816,building
BB&T Data Center,,North Carolina,Wake County,143011.0,35.839325206702256,-78.32812683838715,building
Microsoft,Microsoft,Iowa,Polk County,153956.0,41.51674074828143,-93.70254178906356,building
Microsoft,Microsoft,Iowa,Polk County,149149.0,41.51584274137181,-93.70251346931218,building
Microsoft,Microsoft,Iowa,Polk County,144428.0,41.5158179370744,-93.70630110395008,building
Microsoft,Microsoft,Iowa,Polk County,146482.0,41.51671171276783,-93.70635081713183,building
Microsoft,Microsoft,Iowa,Polk County,145134.0,41.51850163161288,-93.70633127239608,building
Microsoft,Microsoft,Iowa,Polk County,143145.0,41.51760660601612,-93.7063124996927,building
Microsoft,Microsoft,Iowa,Polk County,141016.0,41.51764119065465,-93.70249272354832,building
Microsoft,Microsoft,Iowa,Polk County,141225.0,41.51853822500233,-93.70252494893268,building
Microsoft,Microsoft,Iowa,Warren County,239270.0,41.49787064306023,-93.78703936226476,building
Microsoft,Microsoft,Iowa,Warren County,243678.0,41.49891302864557,-93.78707464281725,building
Project Osmium,Microsoft,Iowa,Madison County,3691114.0,41.4982126945884,-93.78856494092211,campus
Project Osmium,Microsoft,Iowa,Warren County,3691114.0,41.4982126945884,-93.78856494092211,campus
Facebook Altoona Data Center 5,Meta,Iowa,Polk County,628003.0,41.67117312225116,-93.51662854518422,building
Unknown,Blockfusion,New York,Niagara County,16242.0,43.07483783638032,-78.94480168233245,building
Lumen,Lumen Technologies,Utah,Washington County,1833.0,37.062799199655686,-113.54474869182133,building
Sungard Systems International,,Alabama,Jefferson County,665569.0,33.40471562419184,-86.91145719083487,campus
Myndshift Technologies,,Arizona,Maricopa County,21279.0,33.47542082249551,-111.71916515034208,building
ForceAmp.com,,Iowa,Johnson County,2709.0,41.70399842447885,-91.58707810457734,building
TierPoint - Charlotte Data Center,TierPoint,North Carolina,Mecklenburg County,61578.0,35.17319550189212,-80.9281209975006,building
SEGRA,,North Carolina,Mecklenburg County,18094.0,35.180053426012265,-80.92635689076968,building
Middletown Data Center,,Virginia,Frederick County,273198.0,39.017644447296405,-78.29095951194115,campus
CoreSite Chicago Data Center (CH2),CoreSite,Illinois,Cook County,61773.0,41.86279831305618,-87.64130393635244,building
Norma Beach Cable Landing Station,Unity Cable System,Washington,Snohomish County,2369.0,47.86469753279464,-122.28415777716296,building
Unknown,DirecTV,Arizona,Pima County,14373.0,32.092706483207095,-110.7874236595772,building
Google Data Center,,Nevada,Clark County,2037873.0,36.05779722778458,-115.00905166700048,campus
Google,Google,Nevada,Clark County,143869.0,36.056288380442616,-115.00857680765697,building
Google,Google,Nevada,Clark County,141227.0,36.05880161382709,-115.00879721733386,building
Google,Google,Alabama,Jackson County,144996.0,34.9136919358168,-85.74742813692481,building
Google,Google,Alabama,Jackson County,141947.0,34.91367641738197,-85.74593535678355,building
Unknown,,Virginia,Loudoun County,140157.0,39.05060777386236,-77.5400258996867,building
Google,Google,Texas,Ellis County,144574.0,32.44212970719258,-97.06248797347524,building
Google,Google,Texas,Ellis County,138230.0,32.44355545089075,-97.06333284249686,building
Google,Google,Tennessee,Montgomery County,169736.0,36.62458167653138,-87.26129639057423,building
Google NBY-1,Google,Ohio,Licking County,145177.0,40.06114460722927,-82.76429366972576,building
Meta Sarpy Data center,Meta,Nebraska,Sarpy County,666382.0,41.12354217069119,-96.14419028998032,building
Meta Sarpy Data center,Meta,Nebraska,Sarpy County,515084.0,41.1207319993102,-96.14485433047682,building
Google,Google,Nebraska,Sarpy County,152487.0,41.13497469466853,-96.14672977480356,building
JPMorgan Chase,JPMorgan Chase,Colorado,Broomfield County,188160.0,39.98908743748672,-105.02070322444692,building
Marquette-Adams Telephone Coop,,Wisconsin,Marquette County,8257.0,43.78218427328896,-89.57480850448691,building
Compass Data Center,,Texas,Ellis County,41692.0,32.53872184532015,-96.804396257992,building
Amazon IAD119,Amazon Web Services,Virginia,Loudoun County,127104.0,39.01693014125531,-77.43938662806684,building
Flexential Portland - Hillsboro 4,Flexential,Oregon,Washington County,97536.0,45.55520512998273,-122.93988400686504,building
Stream Chicago II,Stream,Illinois,Cook County,215922.0,41.99912438131275,-87.95776458161538,building
STACK Chicago CHI01,Stack Infrastructure,Illinois,Cook County,298471.0,42.006843875852,-87.96519018575371,building
Stream Chicago I,Stream,Illinois,Cook County,120616.0,42.00260065820328,-87.95113481547399,building
Turnkey Internet,,New York,Albany County,10465.0,42.74544108847024,-73.75919958242348,building
Microsoft,Microsoft,Iowa,Dallas County,220735.0,41.540709217348976,-93.82789533434016,building
Unknown,,North Carolina,Catawba County,203410.0,35.5903923643093,-81.26456965310366,building
Amazon Web Services,Amazon Web Services,Ohio,Franklin County,161757.0,40.06014718926057,-83.13490722876958,building
Iron Mountain,,Washington,Spokane County,14085.0,47.59461614024328,-117.53714762552474,building
DBT Data - Harrisonburg Center,,Virginia,Harrisonburg city,505755.0,38.46254477041857,-78.8567969651793,campus
amnet Data Center,,Connecticut,Western Connecticut Planning Region,10526.0,41.09183280598617,-73.51671558521066,building
Unknown,TierPoint,Kansas,Johnson County,58095.0,38.94066934722939,-94.7552318373576,building
CloudHQ MCC1,CloudHQ,Virginia,Prince William County,399915.0,38.717028377885455,-77.49989682110625,building
Meta Forest City datacenter,Meta,North Carolina,Rutherford County,319829.0,35.316554514924,-81.82513233085027,building
Facebook Forest City Data Center,Meta,North Carolina,Rutherford County,4849510.0,35.315698382784056,-81.82474729583835,campus
Amazon IAD128,Amazon Web Services,Virginia,Loudoun County,105735.0,39.01608221259819,-77.43838436569268,building
Microsoft,Microsoft,Virginia,Loudoun County,155317.0,39.07478688334023,-77.56412899431636,building
NTT Silicon Valley SV1 Data Center,NTT,California,Santa Clara County,38759.0,37.36905321130347,-121.95533775020122,building
T5 Data Center,,Georgia,Fulton County,149055.0,34.07592247657671,-84.26431627074264,building
Unknown,BNYM,Tennessee,Davidson County,191585.0,36.21535165955505,-86.78368364527593,building
Arcola Tech Park,,Virginia,Loudoun County,1735467.0,38.94928209940735,-77.55535615935244,campus
Amazon IAD125,Amazon Web Services,Virginia,Loudoun County,104431.0,38.94808953816639,-77.56054492011098,building
Amazon IAD124,Amazon Web Services,Virginia,Loudoun County,104434.0,38.94989544830295,-77.56045170040849,building
Stack Infrastructure Portland 3 Data Center -Bld POR3a,Stack Infrastructure,Oregon,Washington County,94010.0,45.554197103944304,-122.93791223873744,building
Unknown,Quicken Loans,Michigan,Wayne County,46220.0,42.32617958756391,-83.06975885855375,building
Family History Center,The Church of Jesus Christ of Latter-day Saints,Idaho,Bear Lake County,4081.0,42.317295842348535,-111.3042449169628,building
Unknown,,Tennessee,Grainger County,1232.0,36.32807395055384,-83.37670351660657,building
42310 THUNDERBALL DR,True North Data Solutions,Virginia,Loudoun County,78907.0,39.04409911181553,-77.5396744253525,building
QTS Data Center Bld 2,Quality Technology Services,Oregon,Washington County,172698.0,45.55876356137954,-122.9296313964584,building
Amazon PDX91,Amazon Web Services,Oregon,Morrow County,210994.0,45.83792394838973,-119.68835481078412,building
Amazon PDX92,Amazon Web Services,Oregon,Morrow County,211026.0,45.83754024756914,-119.6931290980946,building
Amazon Web Services us-west-2,Amazon Web Services,Oregon,Morrow County,211938.0,45.84665461437445,-119.60564495354758,building
Unknown,,Colorado,Arapahoe County,184275.0,39.729478071116986,-104.71275427482882,building
Unknown,,New York,Erie County,41938.0,43.04498475079566,-78.74920687191288,building
QTS Data Center Bld 3,Quality Technology Services,Oregon,Washington County,171585.0,45.55877963410689,-122.93190590213918,building
QTS Data Center Bld 5,Quality Technology Services,Oregon,Washington County,168921.0,45.55880139187874,-122.93522042560193,building
QTS Data Center Bld 4,Quality Technology Services,Oregon,Washington County,173993.0,45.5587812168356,-122.93294634090128,building
Flexential Portland - Hillsboro 3,Flexential,Oregon,Washington County,337274.0,45.559469442156384,-122.9382474261934,building
Unknown,,Wisconsin,Racine County,9094.0,42.67566516635273,-87.91840525370044,building
Lumen Cleveland,,Ohio,Cuyahoga County,29490.0,41.50506588325723,-81.65777529837548,building
Unknown,,North Carolina,Union County,608141.0,35.179383199219835,-80.57017464245234,campus
SU Green Data Center,Syracuse University,New York,Onondaga County,12169.0,43.01207616834648,-76.11592528923454,building
Amazon IAD163,Amazon Web Services,Virginia,Loudoun County,131936.0,39.03230534445815,-77.42970207458241,building
Johns Hopkins Data Center,,Maryland,Baltimore city,3880.0,39.29355879768687,-76.55173790938491,building
Unknown,,Texas,Collin County,605006.0,33.00895262021403,-96.67610355446038,campus
Ebay,,Utah,Salt Lake County,146408.0,40.56409515233066,-112.05062821391914,building
Edgeconnex Data Center,EdgeConneX,California,Sacramento County,29318.0,38.59229735741739,-121.27743720748433,building
Unknown,,Arizona,Maricopa County,224651.0,33.43946838545604,-112.3770584915453,building
Omnis Network,,Arizona,Maricopa County,16956.0,33.39440984512777,-111.95249099702062,building
Travelers Insurance,Travelers Insurance,Nebraska,Sarpy County,182408.0,41.12784313945287,-96.14504543454542,building
Flexential Nashville - Franklin,Flexential,Tennessee,Williamson County,74934.0,35.92045930433349,-86.81557369600324,building
Wave Broadband Tahoma Terra Facility,,Washington,Thurston County,9139.0,46.94142447057516,-122.62504386293934,campus
Unknown,,Iowa,Polk County,6991.0,41.55808334363262,-93.52766189092016,building
Unknown,,Iowa,Polk County,16920.0,41.55813064318698,-93.52815685258032,building
Unknown,,Oklahoma,Tulsa County,8589.0,36.08125144033206,-95.8541491705349,building
Amazon IAD175,Amazon Web Services,Virginia,Loudoun County,86503.0,38.97986799140556,-77.42547991599417,building
DLI ONE,DLI ONE,Georgia,Muscogee County,420795.0,32.4980963034713,-84.88357121180205,campus
Unknown,,Georgia,Muscogee County,116660.0,32.49826721190269,-84.8835713174046,building
Amazon IAD147,Amazon Web Services,Virginia,Loudoun County,102767.0,38.99501200382876,-77.43535922197498,building
E-Foam,,Florida,Orange County,8403.0,28.57794329871264,-81.56454528552736,building
Unknown,,Connecticut,South Central Connecticut Planning Region,53967.0,41.47880657858901,-72.80100588134881,building
SimpleHelix,,Alabama,Madison County,16411.0,34.7454310001572,-86.69188299975418,building
CenturyLink,CenturyLink,Oregon,Marion County,24529.0,44.93802973611572,-123.03368547875328,building
Digital Realty Atlanta ATL11,Digital Realty,Georgia,Douglas County,313479.0,33.746561602113815,-84.57973805393436,building
Digital Realty Atlanta ATL11,Digital Realty,Georgia,Cobb County,313479.0,33.746561602113815,-84.57973805393436,building
Switch Data Center,Switch,Georgia,Douglas County,171499.0,33.75502503782062,-84.58726858074978,building
Amazon Web Services,Amazon Web Services,Ohio,Franklin County,170922.0,40.05932515588516,-83.13460627634682,building
Amazon Web Services,Amazon Web Services,Ohio,Franklin County,133709.0,40.05830889449401,-83.13409055935804,building
Amazon Web Services,Amazon Web Services,Ohio,Franklin County,142297.0,40.06077960066598,-83.13275276040426,building
CyrusOne PHX7,,Arizona,Maricopa County,138671.0,33.266358037761506,-111.88190865991773,building
CyrusOne PHX4,CyrusOne,Arizona,Maricopa County,103008.0,33.2687661963882,-111.88251618115731,building
CyrusOne PHX5,CyrusOne,Arizona,Maricopa County,102958.0,33.26974107141648,-111.88158696587298,building
Northwest Data Center and Communications Hub,,California,Santa Clara County,10145.0,37.43343706484073,-122.18073854179175,building
Digital Crossroad,Digital Crossroad,Indiana,Lake County,116014.0,41.707418451036666,-87.52019308155617,building
CyrusOne NVA7,CyrusOne,Virginia,Loudoun County,60930.0,39.02630118372146,-77.43402771215538,building
Switch Las Vegas 10,,Nevada,Clark County,206411.0,36.055585829479206,-115.2230609078074,building
Amazon IAD174,Amazon Web Services,Virginia,Loudoun County,132388.0,39.02891562520285,-77.42747327984164,building
Amazon IAD164,Amazon Web Services,Virginia,Loudoun County,132374.0,39.03047299575455,-77.42894228408753,building
Vantage VA12,Vantage Data Centers,Virginia,Loudoun County,115613.0,39.00177881929864,-77.43807112136984,building
Microsoft,Microsoft,Virginia,Loudoun County,97581.0,39.07550786595816,-77.56303534723706,building
Verizon Wireless Mew Building,,Texas,Tarrant County,176383.0,32.97215494101558,-97.15661083483384,building
Amazon IAD152,Amazon Web Services,Virginia,Loudoun County,156644.0,38.91657561831895,-77.47974227140159,building
Amazon IAD151,Amazon Web Services,Virginia,Loudoun County,155542.0,38.916150911627575,-77.47870521719227,building
Amazon IAD83,Amazon Web Services,Virginia,Loudoun County,156166.0,38.947946059437584,-77.52310750749479,building
Amazon Web Services,Amazon Web Services,Virginia,Loudoun County,16739.0,38.946539218555614,-77.52218796260958,building
Amazon IAD122,Amazon Web Services,Virginia,Loudoun County,153273.0,38.955863227653474,-77.49717993007393,building
CyrusOne Sterling IX,CyrusOne,Virginia,Loudoun County,266078.0,38.95830777005175,-77.50575020782452,building
Iron Mountain VA-2,,Virginia,Prince William County,158664.0,38.77724872325061,-77.54596524435513,building
Iron Mountain VA-1,,Virginia,Prince William County,163790.0,38.77791724644345,-77.547073196661,building
Amazon Web Services,Amazon IAD96,Virginia,Prince William County,149064.0,38.78015146527289,-77.53988381836808,building
Amazon Web Services,Amazon IAD95,Virginia,Prince William County,214748.0,38.77845091390774,-77.53942706487335,building
Amazon Web Services,Amazon IAD75,Virginia,Prince William County,214662.0,38.77934250130272,-77.54289591312165,building
Amazon IAD102,Amazon Web Services,Virginia,Prince William County,214338.0,38.73597010187111,-77.50490133103251,building
Amazon IAD101,Amazon Web Services,Virginia,Prince William County,214330.0,38.735440154226055,-77.50569511718139,building
Amazon IAD100,Amazon Web Services,Virginia,Prince William County,214611.0,38.73459785381264,-77.506642396707,building
CloudHQ MCC2,CloudHQ,Virginia,Prince William County,351091.0,38.723181946660446,-77.49900908655816,building
Microsoft Data Center - Hoffman Estates,,Illinois,Cook County,2105271.0,42.07695198404611,-88.13389076420349,campus
Rackspace Somerset NYC1,,New Jersey,Somerset County,18407.0,40.54452566835303,-74.53775798797324,building
Rackspace Belmont NYC2,,New Jersey,Somerset County,57471.0,40.54083886834628,-74.53749197400815,building
Amazon Web Services,Amazon Web Services,Virginia,Prince William County,112502.0,38.74305258344758,-77.53338365008187,building
QTS Ashburn-Shellhorn DC1,Quality Technology Services,Virginia,Loudoun County,156810.0,38.99807915433332,-77.47557114316258,building
QTS Atlanta Data Center 2,Quality Technology Services,Georgia,Fulton County,283307.0,33.77750521515184,-84.41955232430595,building
Unknown,,Texas,Bexar County,109489.0,29.41898804241692,-98.7874709988236,building
Microsoft TRP3 (SAT46),Microsoft,Texas,Medina County,228897.0,29.4129769887884,-98.806374449939,building
Microsoft,Microsoft,Texas,Bexar County,228882.0,29.41579676372189,-98.80331595094908,building
Microsoft,Microsoft,Texas,Bexar County,228885.0,29.415795638787,-98.8045147999406,building
Pewaukee Data Center,WE Energies,Wisconsin,Waukesha County,47298.0,43.05138860290855,-88.21666504030928,building
CenturyLink,,Nevada,Clark County,11601.0,36.18299775012923,-115.06266954999842,building
EdgeConneX PHX02 Data Center,EdgeConneX,Arizona,Maricopa County,654105.0,33.35201067934632,-111.64752987065916,building
Amazon IAD601,Amazon Web Services,Virginia,Prince William County,14469.0,38.77885736291117,-77.55711533400657,building
Switch Edge 1,,Nevada,Clark County,27670.0,36.05914890088559,-115.21368205577332,building
Switch Las Vegas 4,Switch,Nevada,Clark County,27777.0,36.143646142312384,-115.07677875306494,building
Switch Las Vegas 5,Switch,Nevada,Clark County,15026.0,36.14276349998916,-115.0766965000049,building
T-Mobile Everglades MSO Data Center,,Florida,Broward County,49233.0,26.18499694137505,-80.28691594165383,building
DeKalb Meta Data Center,Meta Platforms,Illinois,DeKalb County,12793294.0,41.88904034750541,-88.72856898056978,campus
EdgeConneX Data Center,EdgeConneX,Oregon,Washington County,111564.0,45.556621303589225,-122.91221283734208,building
Amazon Web Services  CMH53,Amazon Web Services,Ohio,Licking County,154029.0,40.09361643944408,-82.75145548070124,building
Amazon Web Services CMH56,Amazon Web Services,Ohio,Licking County,154677.0,40.09653435041937,-82.75205114610061,building
Amazon Web Services  CMH59,Amazon Web Services,Ohio,Licking County,161123.0,40.09404615807959,-82.74749104888826,building
Searcy Information Technologies,City of Searcy,Arkansas,White County,4580.0,35.2492158371357,-91.7409058590938,building
Amazon Web Services,Amazon Web Services,Virginia,Loudoun County,131476.0,38.9958476154284,-77.4712911922763,building
Amazon Web Services,Amazon Web Services,Virginia,Loudoun County,131482.0,38.99660796472238,-77.47326247561796,building
Digital Loudoun Plaza,,Virginia,Loudoun County,686547.0,39.0046791526227,-77.48497952310191,campus
Digital Loudoun Plaza,,Virginia,Loudoun County,2859895.0,39.00169800147741,-77.48159549467017,campus
AWS,,Virginia,Loudoun County,1789925.0,38.98103411725457,-77.41779460624687,campus
AWS,,Virginia,Loudoun County,1069380.0,38.98782988809138,-77.41110852642319,campus
AWS,,Virginia,Loudoun County,1128056.0,38.981619328745744,-77.42605829279701,campus
Unknown,,Virginia,Loudoun County,384105.0,38.98473223230382,-77.4257836910691,campus
Meta Eagle Mountain Data Center,Meta,Utah,Utah County,344790.0,40.26828850505122,-112.01507681579746,building
Meta Eagle Mountain Data Center,Meta,Utah,Utah County,626371.0,40.2655639892377,-112.01512736677896,building
Unknown,,Kansas,Johnson County,4912.0,38.926805991335975,-94.7683727731216,building
Digital Realty IAD42,Digital Realty,Virginia,Loudoun County,218174.0,39.00571934215422,-77.44944907275473,building
Amazon Web Services us-west-2,Amazon Web Services,Oregon,Morrow County,211938.0,45.84666781437448,-119.60703845354756,building
Amazon Web Services us-west-2,Amazon Web Services,Oregon,Morrow County,221562.0,45.846753781437606,-119.60906254768788,building
Meta Henrico Data Center,Meta,Virginia,Henrico County,327920.0,37.48196326360026,-77.23380499305182,building
Unknown,,Florida,Polk County,22578.0,28.29407690335012,-81.83484809231037,building
DataBank Las Vegas LAS1,,Nevada,Clark County,58547.0,36.05972751073122,-115.14721141845384,building
Meta Eagle Mountain Data Center,Meta,Utah,Utah County,628165.0,40.27233431054834,-112.01505471830352,building
Meta Eagle Mountain Data Center,,Utah,Utah County,22734233.0,40.26819070295294,-112.01771937397096,campus
Amazon IAD601,Amazon Web Services,Virginia,Loudoun County,14384.0,39.015262930158144,-77.43777001853674,building
Sarpy Meta Data Center,,Nebraska,Sarpy County,7817408.0,41.11410707210003,-96.14365637259768,campus
Unknown,DirecTV,Arizona,Cochise County,7539.0,31.972674750091077,-110.3047516999998,building
Meta Stanton Springs Data Center,Meta,Georgia,Newton County,9032398.0,33.60076107577663,-83.70034219452744,campus
Unknown,Meta,Georgia,Newton County,660258.0,33.6013709927818,-83.70541734238208,building
Flexential Salt Lake City - Millcreek,Flexential,Utah,Salt Lake County,28092.0,40.68552518346084,-111.88504405838351,building
Amazon PDX93,Amazon Web Services,Oregon,Morrow County,213828.0,45.83654228757941,-119.68986643174064,building
Amazon Web Services,Amazon Web Services,Virginia,Prince William County,111697.0,38.74428601144499,-77.53332238839505,building
Unknown,,Virginia,Prince William County,257960.0,38.745958588783616,-77.53750921534285,building
COPT Innovation Park Data Center,Amazon Web Services,Virginia,Prince William County,149206.0,38.74388634728904,-77.53062487747106,building
COPT Data Center Bldg 2,Amazon Web Services,Virginia,Prince William County,104114.0,38.74405494832178,-77.5291961000727,building
Amazon,Amazon Web Services,California,Santa Clara County,98142.0,37.3899327218429,-121.96598983231348,building
Unknown,Google,South Carolina,Berkeley County,182645.0,33.06202195137125,-80.03831641068669,building
Google,Google,South Carolina,Berkeley County,181261.0,33.06217398793264,-80.03966007767937,building
Google,Google,South Carolina,Berkeley County,206252.0,33.0620532330343,-80.041154478933,building
Google,Google,South Carolina,Berkeley County,181645.0,33.064311956552835,-80.03845634859405,building
Google,Google,South Carolina,Berkeley County,131216.0,33.06643643704493,-80.0384282206963,building
Google,Google,South Carolina,Berkeley County,249320.0,33.06415660970066,-80.0435751320087,building
Google,Google,South Carolina,Berkeley County,697831.0,33.062000589098496,-80.04505685925874,building
Google,Google,South Carolina,Berkeley County,145533.0,33.06443480153904,-80.04606755156347,building
Unknown,Meta,Georgia,Newton County,763506.0,33.60009367954904,-83.69683907912508,building
Unknown,Meta,Georgia,Newton County,342886.0,33.59802145151715,-83.69501281261269,building
Microsoft EAT02,Microsoft,Washington,Douglas County,246129.0,47.416868024109554,-120.20768784943974,building
Intergate Columbia D,Sabey Data Centers,Washington,Douglas County,135020.0,47.40758548151772,-120.19160109219082,building
Google,Google,Iowa,Pottawattamie County,76005.0,41.17734372844027,-95.80485695055478,building
Google,Google,Iowa,Pottawattamie County,318940.0,41.17727415208592,-95.80637969473156,building
Google,Google,Iowa,Pottawattamie County,258223.0,41.17745636098298,-95.8032146599412,building
Google,Google,Iowa,Pottawattamie County,211543.0,41.17748290529598,-95.80096717468037,building
Google,Google,Iowa,Pottawattamie County,131491.0,41.17554012114429,-95.80676284722784,building
Google,Google,Iowa,Pottawattamie County,129827.0,41.17554005850446,-95.80565239909376,building
Google,Google,Iowa,Pottawattamie County,132118.0,41.17554283490945,-95.80449329746104,building
Google,Google,Iowa,Pottawattamie County,132254.0,41.175543648575314,-95.8033895382722,building
Google,Google,Iowa,Pottawattamie County,130820.0,41.175547389125526,-95.80222393205068,building
Google,Google,Iowa,Pottawattamie County,129628.0,41.17554529809748,-95.80111944856117,building
